base_origem,qru_corrida,nome_orgao,status_corrida,motivo_corrida,km_total,valor_corrida,data_abertura,data_despacho,data_local_embarque,data_inicio,data_final,origem_endereco,origem_bairro,origem_cidade,origem_uf,destino_solicitado_endereco,destino_efetivo_endereco,origem_latitude,origem_longitude,destino_solicitado_latitude,destino_solicitado_longitude,destino_efetivo_latitude,destino_efetivo_longitude,ateste_setorial_data,conteste_info
TAXIGOV_DF,626014.0,Presidência da República,CONCLUÍDA,1 - REUNIAO EXTERNA,17.87,63.43,2022-08-11 03:32:19.283,2022-08-11 03:32:31.953,2022-08-11 03:35:41.200,2022-08-11 03:35:46.087,2022-08-11 03:53:17.323,IMPRENSA NACIONAL,CRUZEIRO,BRASILIA,DF,"Residencial Paradise Club, QNC 1, AE. 21, Av. Samdu Norte, Taguatinga, Brasilia, DF",QNC 1 - TAGUATINGA NORTE TAGUATINGA - 72115-510 - BRASILIA - DF - BRASILIA,-15.792739,-47.913962,-15.832194,-48.061564,-15.831794,-48.061669,,
TAXIGOV_DF,626016.0,Ministério da Economia,CANCELADA,1 - REUNIAO EXTERNA,,,2022-08-11 04:26:29.840,2022-08-11 04:27:25.377,,2022-08-11 04:27:25.377,2022-08-11 04:27:27.477,BIARRITZ HPLUS LONG STAY,ASA NORTE,BRASILIA,DF,"Aeroporto Internacional de Brasilia, Brasilia, Distrito Federal",,-15.790231,-47.885376,-15.869737,-47.917235,,,,
TAXIGOV_DF,626027.0,Ministério de Minas e Energia,CONCLUÍDA,4 - OUTROS,32.57,115.63,2022-08-11 05:50:21.370,2022-08-11 05:50:31.723,2022-08-11 05:50:39.840,2022-08-11 05:51:10.150,2022-08-11 06:38:05.590,QUADRA QS 305,SAMAMBAIA,BRASILIA,DF,"Ministerio de Minas e Energia, Esplanada dos Ministerios, Bl. U, Brasilia, Brasilia, DF",ESPLANADA DOS MINISTERIOS - ZONA CIVICOADMINISTRATIVA - 70050-000 - BRASILIA - DF - BRASILIA,-15.885331,-48.094903,-15.796610,-47.868043,-15.796457,-47.867759,2022-08-16 12:01:00.977,
TAXIGOV_DF,626028.0,Ministério do Meio Ambiente,CONCLUÍDA,1 - REUNIAO EXTERNA,32.37,114.91,2022-08-11 06:11:18.113,2022-08-11 06:11:27.977,2022-08-11 06:11:29.560,2022-08-11 06:12:23.250,2022-08-11 06:55:51.320,"QUADRA QR 408 CONJUNTO 1,",SAMAMBAIA,BRASILIA,DF,"Ministerio do Meio Ambiente, Eixo Monumental, Brasilia, Distrito Federal","Ministerio do Meio Ambiente, Eixo Monumental, Brasilia, Distrito Federal",-15.864167,-48.081900,-15.798594,-47.872432,,,,
TAXIGOV_DF,626043.0,Presidência da República,CONCLUÍDA,1 - REUNIAO EXTERNA,19.3,68.52,2022-08-11 07:09:45.850,2022-08-11 07:09:59.120,2022-08-11 07:16:44.903,2022-08-11 07:21:07.270,2022-08-11 08:04:43.010,RUA 16 NORTE,NORTE AGUAS CLARAS,BRASILIA,DF,"ALA 1 - Base Aerea de Brasilia, Brasilia, DF",AEB - BRASILIA - DF - BRASILIA,-15.837260,-48.021904,-15.871267,-47.908699,-15.867117,-47.905346,,
TAXIGOV_DF,626047.0,Ministério da Justiça,CONCLUÍDA,1 - REUNIAO EXTERNA,41.4,146.96,2022-08-11 07:24:14.567,2022-08-11 07:25:11.023,2022-08-11 07:47:49.293,2022-08-11 07:57:57.453,2022-08-11 08:38:26.483,FORCA NACIONAL,SETOR SUL GAMA,BRASILIA,DF,"Escola Superior de Defesa (ESD), Brasilia, Distrito Federal",POLO DE ARTESANATO - SETOR DE HABITACOES INDIVIDUAIS SUL - 71679-600 - BRASILIA - DF - BRASILIA,-16.034727,-48.058333,-15.867362,-47.821899,-15.867708,-47.825070,,
TAXIGOV_DF,626049.0,Ministério Cidadania,CONCLUÍDA,1 - REUNIAO EXTERNA,11.96,42.46,2022-08-11 07:39:35.890,2022-08-11 07:39:45.527,2022-08-11 07:39:58.790,2022-08-11 07:41:24.730,2022-08-11 07:57:47.460,"SMAS TR. 3, LT. 1",BRASILIA,BRASILIA,DF,"Ministerio da Cidadania - GM/MC, Brasilia, DF",ESPLANADA DOS MINISTERIOS - ZONA CIVICOADMINISTRATIVA - 70050-000 - BRASILIA - DF - BRASILIA,-15.836098,-47.951126,-15.798405,-47.873197,-15.798811,-47.873228,,
TAXIGOV_DF,626053.0,Ministério da Justiça,CONCLUÍDA,4 - OUTROS,19.71,69.96,2022-08-11 07:46:58.133,2022-08-11 07:48:17.433,2022-08-11 07:57:45.623,2022-08-11 07:58:15.997,2022-08-11 08:29:49.087,SRES AE,CRUZEIRO VELHO,BRASILIA,DF,"Escola Superior de Defesa (ESD), Brasilia, DF",POLO DE ARTESANATO - SETOR DE HABITACOES INDIVIDUAIS SUL - 71679-600 - BRASILIA - DF - BRASILIA,-15.784061,-47.937473,-15.867361,-47.821899,-15.867269,-47.823046,,
TAXIGOV_DF,626062.0,Presidência da República,CONCLUÍDA,1 - REUNIAO EXTERNA,4.58,16.28,2022-08-11 08:03:04.897,2022-08-11 08:03:15.523,2022-08-11 08:09:05.260,2022-08-11 08:11:19.963,2022-08-11 08:20:24.647,BRASILIA,BRASILIA,BRASILIA,DF,"Palacio da Alvorada, Via Palacio Presidencial, Brasilia, DF",SPP - ZONA CIVICOADMINISTRATIVA - 70150-000 - BRASILIA - DF - BRASILIA,-15.799438,-47.859390,-15.792512,-47.822834,-15.793925,-47.826132,,
TAXIGOV_DF,626069.0,MINISTERIO DO DESENVOLVIMENTO REGIONAL,CONCLUÍDA,4 - OUTROS,5.72,20.3,2022-08-11 08:09:22.277,2022-08-11 08:11:55.410,2022-08-11 08:18:56.423,2022-08-11 08:19:22.230,2022-08-11 08:29:15.267,MINISTÉRIO DO DESENVOLVIMENTO REGIONAL - ED. CELSO FURTADO,ASA NORTE,BRASÍLIA,DF,"MINISTÉRIO DA CIÊNCIA, TECNOLOGIA E INOVAÇÕES - MCTI - BRASÍLIA / DF",ESPLANADA DOS MINISTERIOS - ZONA CIVICOADMINISTRATIVA - 70050-000 - BRASILIA - DF - BRASÍLIA,-15.770219,-47.893141,-15.799863,-47.870052,-15.799749,-47.869931,,
TAXIGOV_DF,626072.0,Ministério do Turismo,CONCLUÍDA,1 - REUNIAO EXTERNA,3.76,13.35,2022-08-11 08:10:45.020,2022-08-11 08:14:33.143,2022-08-11 08:27:45.077,2022-08-11 08:27:45.353,2022-08-11 08:34:24.897,EM BLOCO U,BRASILIA,BRASILIA,DF,"Venancio Shopping, Setor Comercial Sul, Quadra 8, Asa Sul, Brasilia, DF",SCS QUADRA 8 - ASA SUL - 70308-000 - BRASILIA - DF - BRASILIA,-15.796652,-47.868067,-15.796287,-47.892931,-15.794668,-47.892519,,
TAXIGOV_DF,626073.0,Ministério da Infraestrutura,CONCLUÍDA,3 - VISITA TECNICA,6.47,22.97,2022-08-11 08:12:36.000,2022-08-11 08:18:27.047,2022-08-11 08:25:35.993,2022-08-11 08:31:16.210,2022-08-11 08:42:30.033,EIXO MONUMENTAL,PA 2,BRASILIA,DF,"SGO Q 1 Ae, Brasilia, DF",PC MUNICIPAL - ZONA CIVICOADMINISTRATIVA - 70070-550 - BRASILIA - DF - BRASILIA,-15.795428,-47.866892,-15.782000,-47.911890,-15.780623,-47.911041,,
TAXIGOV_DF,626074.0,Presidência da República,CONCLUÍDA,1 - REUNIAO EXTERNA,2.64,9.37,2022-08-11 08:15:11.093,2022-08-11 08:15:47.243,2022-08-11 08:19:19.570,2022-08-11 08:19:22.197,2022-08-11 08:24:30.460,"PALACIO DO PLANALTO, PCA. DOS TRES PODERES",ZONA CIVICOADMINISTRATIVA,BRASILIA,DF,"Tribunal de Contas da Uniao, SAFS 4, 01, Asa Sul, Brasilia, Distrito Federal",PC DOS TRES PODERES - ZONA CIVICOADMINISTRATIVA - 70100-000 - BRASILIA - DF - BRASILIA,-15.799411,-47.860877,-15.803851,-47.863196,-15.804144,-47.862479,,
TAXIGOV_DF,626081.0,Ministério da Mulher,CONCLUÍDA,1 - REUNIAO EXTERNA,4.08,14.48,2022-08-11 08:18:43.023,2022-08-11 08:18:55.413,2022-08-11 08:21:01.730,2022-08-11 08:22:35.323,2022-08-11 08:33:13.557,"EMI BLOCO A,",BRASILIA,BRASILIA,DF,"Ordem dos Advogados do Brasil - Sede, Asa Sul, Brasilia, Distrito Federal",SAUS QUADRA 5 - ASA SUL - 70070-050 - BRASILIA - DF - BRASILIA,-15.798338,-47.873144,-15.804502,-47.880610,-15.804526,-47.880524,,
TAXIGOV_DF,626089.0,Ministério da Economia,CONCLUÍDA,4 - OUTROS,6.69,23.74,2022-08-11 08:24:03.730,2022-08-11 08:25:28.823,2022-08-11 08:26:19.840,2022-08-11 08:30:23.130,2022-08-11 08:46:02.000,"ESPLANADA DOS MINISTERIOS, BL. K",BRASILIA,BRASILIA,DF,"Quadra Mista Sudoeste 5, Brasilia, DF",SQSW 301 BLOCO C - SETOR SUDOESTE - 70673-103 - BRASILIA - DF - BRASILIA,-15.795270,-47.874315,-15.794875,-47.918728,-15.796351,-47.919232,,
TAXIGOV_DF,626093.0,MINISTERIO DO DESENVOLVIMENTO REGIONAL,CONCLUÍDA,1 - REUNIAO EXTERNA,5.52,19.59,2022-08-11 08:33:16.397,2022-08-11 08:33:23.647,2022-08-11 08:37:00.013,2022-08-11 08:37:25.710,2022-08-11 08:49:10.143,"ESPLANADA DOS MINISTERIOS, BL. E",BRASILIA,BRASILIA,DF,"Ministerio do Desenvolvimento Regional - Ed. Celso Furtado, Asa Norte, Brasilia, DF",SCRN 706/707 BLOCO E - ASA NORTE - 70740-650 - BRASILIA - DF - BRASILIA,-15.799653,-47.869983,-15.770219,-47.893141,-15.770301,-47.892962,,
TAXIGOV_DF,626094.0,Ministério das Relaçoes Exteriores,CONCLUÍDA,1 - REUNIAO EXTERNA,7.64,27.13,2022-08-11 08:33:28.043,2022-08-11 08:34:13.153,2022-08-11 08:43:11.387,2022-08-11 08:47:15.527,2022-08-11 09:00:56.897,"SQS 213 BL. C,",ASA SUL,BRASILIA,DF,"Anexo II do Itamaraty (Bolo de Noiva), Via S2, Brasilia, Distrito Federal",SAFS QUADRA - ZONA CIVICOADMINISTRATIVA - 70070-600 - BRASILIA - DF - BRASILIA,-15.830200,-47.914158,-15.802060,-47.867970,-15.802093,-47.867753,2022-08-17 15:16:14.990,
TAXIGOV_DF,626098.0,Ministério da Saúde,CANCELADA,1 - REUNIAO EXTERNA,,7.1,2022-08-11 08:36:37.483,2022-08-11 09:44:23.180,2022-08-11 09:48:39.517,2022-08-11 09:54:23.180,2022-08-11 10:00:27.667,PO700-MINISTÉRIO DA SAÚDE,ASA NORTE,BRASÍLIA,DF,MINISTÉRIO DA SAÚDE - BLOCO G - BRASÍLIA / DF,,-15.783626,-47.890344,-15.800236,-47.868381,,,,
TAXIGOV_DF,626103.0,MAPA - Ministério da Agricultura - Pecuária e Abastecimento,CONCLUÍDA,1 - REUNIAO EXTERNA,1.0,7.1,2022-08-11 08:39:43.177,2022-08-11 08:39:52.167,2022-08-11 08:41:24.590,2022-08-11 08:41:45.670,2022-08-11 08:44:12.787,"MINISTERIO DA AGRICULTURA, PECUARIA E ABASTECIMENTO (MAPA)",BRASILIA,BRASILIA,DF,"Instituto Rio Branco, Brasilia, DF",SAFS QUADRA - ZONA CIVICOADMINISTRATIVA - 70070-600 - BRASILIA - DF - BRASILIA,-15.801054,-47.870925,-15.805544,-47.868919,-15.805810,-47.868754,,
TAXIGOV_DF,626106.0,Ministério da Infraestrutura,CONCLUÍDA,4 - OUTROS,15.65,55.56,2022-08-11 08:40:42.503,2022-08-11 08:40:53.130,2022-08-11 08:43:08.797,2022-08-11 08:47:24.810,2022-08-11 09:06:09.767,MINISTERIO DA INFRAESTRUTURA - ANEXOS A E B,PA 2,BRASILIA,DF,"Escola Superior de Defesa (ESD), Brasilia, DF",POLO DE ARTESANATO - SETOR DE HABITACOES INDIVIDUAIS SUL - 71679-600 - BRASILIA - DF - BRASILIA,-15.795205,-47.866908,-15.867361,-47.821899,-15.867346,-47.823074,,
TAXIGOV_DF,626107.0,Ministério da Mulher,CONCLUÍDA,1 - REUNIAO EXTERNA,2.03,7.19,2022-08-11 08:41:09.050,2022-08-11 08:41:18.060,2022-08-11 08:43:01.980,2022-08-11 08:50:42.030,2022-08-11 09:00:33.967,"MINISTERIO DA CIDADANIA - MC, EIXO MONUMENTAL",,BRASILIA,DF,"SGAN 601 Modulo K, Asa Norte, Brasilia, Distrito Federal",SQN 402 BLOCO F - ASA NORTE - 70834-060 - BRASILIA - DF - BRASILIA,-15.798614,-47.872419,-15.787022,-47.871700,-15.786970,-47.871670,,
TAXIGOV_DF,626110.0,Ministério Cidadania,CONCLUÍDA,1 - REUNIAO EXTERNA,13.61,48.32,2022-08-11 08:41:44.207,2022-08-11 08:44:40.287,2022-08-11 08:59:03.853,2022-08-11 08:59:18.120,2022-08-11 09:16:20.663,DNIT - DEPARTAMENTO NACIONAL DE INFRAESTRUTURA DE TRANSPORTES,ASA NORTE,BRASILIA,DF,"Ed.The Union, Smpw Trecho 3 Q 2 Q 1 Conjunto 2, Brasilia, Distrito Federal",SHIP - SETORES COMPLEMENTARES - 70610-000 - BRASILIA - DF - BRASILIA,-15.789993,-47.874969,-15.836362,-47.951692,-15.836028,-47.950191,,
TAXIGOV_DF,626112.0,Ministério da Saúde,CONCLUÍDA,1 - REUNIAO EXTERNA,4.3,15.26,2022-08-11 08:42:49.737,2022-08-11 08:43:05.657,2022-08-11 08:51:55.967,2022-08-11 08:52:10.700,2022-08-11 09:00:15.633,PO700-MINISTERIO DA SAUDE,ASA NORTE,BRASILIA,DF,"Anexo do Ministerio da Saude, Eixo Monumental, G, Brasilia, Distrito Federal",ESPLANADA DOS MINISTERIOS - ZONA CIVICOADMINISTRATIVA - 70050-000 - BRASILIA - DF - BRASILIA,-15.783626,-47.890344,-15.801808,-47.868561,-15.801299,-47.86862,2022-08-15 16:03:13.113,
TAXIGOV_DF,626116.0,Ministério da Economia,CONCLUÍDA,4 - OUTROS,6.92,24.56,2022-08-11 08:48:15.717,2022-08-11 08:48:40.983,2022-08-11 08:49:06.060,2022-08-11 08:49:24.587,2022-08-11 09:06:54.900,"QMSW 5,",SETOR SUDOESTE,BRASILIA,DF,"MINISTERIO DA ECONOMIA BL K, - PA 2",ESPLANADA DOS MINISTERIOS - ZONA CIVICOADMINISTRATIVA - 70050-000 - BRASILIA - DF - BRASILIA,-15.794787,-47.918917,-15.79482,-47.87401,-15.794675,-47.873613,,
TAXIGOV_DF,626134.0,Polícia Rodoviária Federal,CONCLUÍDA,1 - REUNIAO EXTERNA,10.2,36.19,2022-08-11 09:01:08.107,2022-08-11 09:01:30.717,2022-08-11 09:13:53.030,2022-08-11 09:13:53.293,2022-08-11 09:29:36.450,"BRASILIA - DF, 70610-200, BRASIL",BRASILIA,BRASILIA,DF,"SGO Q 5, Brasilia, DF",SGO QUADRA 5 - SETORES COMPLEMENTARES - 70610-650 - BRASILIA - DF - BRASILIA,-15.814343,-47.947527,-15.776315,-47.911510,-15.77637,-47.911606,,
TAXIGOV_DF,626135.0,MINISTERIO DO DESENVOLVIMENTO REGIONAL,CONCLUÍDA,1 - REUNIAO EXTERNA,5.49,19.48,2022-08-11 09:02:25.670,2022-08-11 09:03:24.080,2022-08-11 09:12:34.200,2022-08-11 09:12:36.773,2022-08-11 09:23:52.570,MINISTERIO DO DESENVOLVIMENTO REGIONAL - ED. CELSO FURTADO,ASA NORTE,BRASILIA,DF,"Ministerio da Ciencia, Tecnologia, Inovacoes e Comunicacoes, Esplanada dos Ministerios, Bl. E, Brasilia, Brasilia, DF",ESPLANADA DOS MINISTERIOS - ZONA CIVICOADMINISTRATIVA - 70050-000 - BRASILIA - DF - BRASILIA,-15.770219,-47.893141,-15.799653,-47.869983,-15.799789,-47.870064,,
TAXIGOV_DF,626144.0,Ministério da Saúde,CONCLUÍDA,1 - REUNIAO EXTERNA,4.15,14.73,2022-08-11 09:09:55.037,2022-08-11 09:10:07.570,2022-08-11 09:15:21.307,2022-08-11 09:28:44.467,2022-08-11 09:38:04.017,SRTVN QUADRA 03,BRASILIA,BRASILIA,DF,"Ministerio da Saude - Bloco G, Brasilia, DF",ESPLANADA DOS MINISTERIOS - ZONA CIVICOADMINISTRATIVA - 70050-000 - BRASILIA - DF - BRASILIA,-15.783535,-47.890305,-15.800236,-47.868381,-15.800316,-47.868298,2022-08-15 16:03:13.367,
TAXIGOV_DF,626146.0,Ministério da Saúde,CONCLUÍDA,1 - REUNIAO EXTERNA,6.68,23.71,2022-08-11 09:11:22.553,2022-08-11 09:11:32.247,2022-08-11 09:13:34.650,2022-08-11 09:14:09.590,2022-08-11 09:25:09.510,MINISTERIO DA SAUDE - BLOCO G,,BRASILIA,DF,"Instituto Serzedello Correa, SCES Trecho 3 Polo 8, 4, Brasilia, DF",VIA N UM LESTE - BRASILIA - DF - BRASILIA,-15.800236,-47.868381,-15.805803,-47.842716,-15.806093,-47.843057,2022-08-15 16:03:13.617,
TAXIGOV_DF,626150.0,Ministério do Turismo,CONCLUÍDA,1 - REUNIAO EXTERNA,3.69,13.1,2022-08-11 09:12:34.993,2022-08-11 09:19:22.877,2022-08-11 09:27:18.230,2022-08-11 09:27:50.937,2022-08-11 09:37:21.077,SCS BLOCO C,BRASILIA,BRASILIA,DF,"Em Bloco U, Brasilia, Brasilia, DF",ESPLANADA DOS MINISTERIOS - ZONA CIVICOADMINISTRATIVA - 70050-000 - BRASILIA - DF - BRASILIA,-15.795328,-47.892646,-15.796652,-47.868067,-15.796567,-47.867901,,
TAXIGOV_DF,626155.0,MINISTERIO DO DESENVOLVIMENTO REGIONAL,CONCLUÍDA,1 - REUNIAO EXTERNA,11.02,39.13,2022-08-11 09:16:10.243,2022-08-11 09:16:19.240,2022-08-11 09:17:33.030,2022-08-11 09:19:45.293,2022-08-11 09:38:05.710,MINISTERIO DO DESENVOLVIMENTO REGIONAL - ED. CELSO FURTADO,ASA NORTE,BRASILIA,DF,"Agencia Nacional de Aguas e Saneamento Basico, Brasilia, Brasilia, Distrito Federal",SPO - BRASILIA - DF - BRASILIA,-15.770220,-47.893141,-15.816310,-47.944919,-15.819377,-47.945683,,
TAXIGOV_DF,626156.0,Ministério Cidadania,CONCLUÍDA,1 - REUNIAO EXTERNA,13.22,46.95,2022-08-11 09:17:07.847,2022-08-11 09:17:20.397,2022-08-11 09:17:31.533,2022-08-11 09:22:21.260,2022-08-11 09:54:48.897,"SMAS THE UNION,",PA 11,BRASILIA,DF,"DNIT, - ASA NORTE",SBN QUADRA 2 - ASA NORTE - 70040-020 - BRASILIA - DF - BRASILIA,-15.83611,-47.95090,-15.78980,-47.87496,-15.789364,-47.874954,,
TAXIGOV_DF,626160.0,Ministério Cidadania,CONCLUÍDA,1 - REUNIAO EXTERNA,10.05,35.69,2022-08-11 09:21:40.583,2022-08-11 09:21:49.480,2022-08-11 09:26:47.870,2022-08-11 09:27:34.713,2022-08-11 09:47:47.917,"SAAN QUADRA 4, 916",BRASILIA,BRASILIA,DF,"Esplanada dos Ministerios, Brasilia, Distrito Federal",ESPLANADA DOS MINISTERIOS - ZONA CIVICOADMINISTRATIVA - 70050-000 - BRASILIA - DF - BRASILIA,-15.758922,-47.931816,-15.797094,-47.871139,-15.798531,-47.873103,,
TAXIGOV_DF,626161.0,Presidência da República,CONCLUÍDA,2 - ENTREGA DE DOCUMENTOS,9.51,33.76,2022-08-11 09:22:00.540,2022-08-11 09:22:11.260,2022-08-11 09:32:35.527,2022-08-11 09:32:38.130,2022-08-11 09:52:42.830,BRASILIA,BRASILIA,BRASILIA,DF,"QGEx Portaria Norte, Brasilia, DF",SMU - BRASILIA - DF - BRASILIA,-15.799438,-47.859390,-15.772358,-47.917021,-15.772248,-47.917055,,
TAXIGOV_DF,626164.0,MINISTERIO DO DESENVOLVIMENTO REGIONAL,CONCLUÍDA,1 - REUNIAO EXTERNA,5.49,19.48,2022-08-11 09:23:31.177,2022-08-11 09:24:17.540,2022-08-11 09:29:49.277,2022-08-11 09:30:10.403,2022-08-11 09:39:50.390,"VIA W 5 NORTE, 174",ASA NORTE,BRASILIA,DF,"Ministerio Do Desenvolvimento Regional, Brasilia, DF",ESPLANADA DOS MINISTERIOS - ZONA CIVICOADMINISTRATIVA - 70050-000 - BRASILIA - DF - BRASILIA,-15.770399,-47.893189,-15.799763,-47.870048,-15.799796,-47.869881,,
TAXIGOV_DF,626166.0,Ministério Cidadania,CONCLUÍDA,1 - REUNIAO EXTERNA,15.3,54.32,2022-08-11 09:24:44.613,2022-08-11 09:24:53.770,2022-08-11 09:28:59.700,2022-08-11 09:29:16.463,2022-08-11 09:46:26.360,ESPLANADA DOS MINISTERIOS - BLOCO C,BRASILIA,BRASILIA,DF,"Ed.The Union, Smpw Trecho 3 Q 2 Q 1 Conjunto 2, Brasilia, DF",SMAS TRECHO 3 - BRASILIA - DF - BRASILIA,-15.799053,-47.871731,-15.836361,-47.951692,-15.836051,-47.951143,,
TAXIGOV_DF,626167.0,Ministério das Relaçoes Exteriores,CONCLUÍDA,1 - REUNIAO EXTERNA,16.24,57.66,2022-08-11 09:24:48.687,2022-08-11 09:24:57.547,2022-08-11 09:25:01.010,2022-08-11 09:34:01.540,2022-08-11 09:58:31.800,"ESPLANADA DOS MINISTERIOS, BL. H",BRASILIA,BRASILIA,DF,"AAC Transportes E Mudancas, Scia Q 14 Conjunto 8 10, 1, Brasilia, DF",SETOR SCIA QUADRA 10 - ZONA INDUSTRIAL GUARA - 71250-600 - BRASILIA - DF - BRASILIA,-15.801572,-47.867816,-15.786425,-47.975498,-15.783780,-47.985903,,
TAXIGOV_DF,626169.0,MINISTERIO DO DESENVOLVIMENTO REGIONAL,CONCLUÍDA,1 - REUNIAO EXTERNA,5.97,21.21,2022-08-11 09:26:08.747,2022-08-11 09:26:18.900,2022-08-11 09:28:59.987,2022-08-11 09:29:41.930,2022-08-11 09:44:30.393,"MINISTERIO DA CIENCIA, TECNOLOGIA, INOVACOES E COMUNICACOES",BRASILIA,BRASILIA,DF,"Ministerio do Desenvolvimento Regional - Ed. Celso Furtado, Asa Norte, Brasilia, DF",SCRN 706/707 BLOCO E - ASA NORTE - 70740-650 - BRASILIA - DF - BRASILIA,-15.799653,-47.869983,-15.770219,-47.893141,-15.770295,-47.892917,,
TAXIGOV_DF,626170.0,Ministério da Justiça,CONCLUÍDA,3 - VISITA TECNICA,3.12,11.09,2022-08-11 09:26:25.070,2022-08-11 09:26:40.343,2022-08-11 09:33:01.840,2022-08-11 09:33:27.637,2022-08-11 09:40:10.623,MINISTERIO DA JUSTICA (MJ),BRASILIA,BRASILIA,DF,"Depen - Departamento Penitenciario Nacional, Asa Norte, Brasilia, DF",SHN QUADRA 2 BLOCO F - ASA NORTE - 70702-060 - BRASILIA - DF - BRASILIA,-15.797112,-47.865906,-15.787595,-47.885945,-15.787782,-47.88602,,
TAXIGOV_DF,626174.0,Presidência da República,CONCLUÍDA,1 - REUNIAO EXTERNA,11.55,41.01,2022-08-11 09:27:02.350,2022-08-11 09:29:39.580,2022-08-11 09:37:24.683,2022-08-11 09:39:37.650,2022-08-11 10:00:10.790,ANEXO III TERREO. PALACIO DO PLANALTO,BRASILIA,BRASILIA,DF,"Hospital das Forcas Armadas, Brasilia, DF",SHCES QUADRA 1501 BLOCO H - CRUZEIRO NOVO - 70658-518 - BRASILIA - DF - BRASILIA,-15.79904,-47.858917,-15.801237,-47.934759,-15.801122,-47.934523,,
TAXIGOV_DF,626177.0,Ministério da Infraestrutura,CONCLUÍDA,1 - REUNIAO EXTERNA,5.86,20.8,2022-08-11 09:28:50.940,2022-08-11 09:29:01.653,2022-08-11 09:31:56.440,2022-08-11 09:33:22.977,2022-08-11 09:45:01.587,"MINISTERIO DOS TRANSPORTES - ANEXO A E B, EIXO MONUMENTAL",ASA SUL,BRASILIA,DF,"Sgon R2, 154, Brasilia, Brasilia, DF",PC MUNICIPAL - ZONA CIVICOADMINISTRATIVA - 70070-550 - BRASILIA - DF - BRASILIA,-15.795428,-47.866892,-15.780865,-47.910710,-15.780695,-47.911005,,
TAXIGOV_DF,626178.0,MINISTERIO DO DESENVOLVIMENTO REGIONAL,CONCLUÍDA,1 - REUNIAO EXTERNA,5.85,20.76,2022-08-11 09:28:57.427,2022-08-11 09:29:05.607,2022-08-11 09:41:40.123,2022-08-11 09:43:31.197,2022-08-11 09:55:37.963,MINISTÉRIO DO DESENVOLVIMENTO REGIONAL - ED. CELSO FURTADO,ASA NORTE,BRASÍLIA,DF,MINISTÉRIO DO DESENVOLVIMENTO REGIONAL - BRASÍLIA / DF,ESPLANADA DOS MINISTERIOS - ZONA CIVICOADMINISTRATIVA - 70050-000 - BRASILIA - DF - BRASÍLIA,-15.770219,-47.893141,-15.799763,-47.870048,-15.800334,-47.870283,,
TAXIGOV_DF,626179.0,Ministério Cidadania,CONCLUÍDA,1 - REUNIAO EXTERNA,12.69,45.04,2022-08-11 09:29:14.270,2022-08-11 09:29:19.803,2022-08-11 09:32:18.843,2022-08-11 09:36:35.993,2022-08-11 09:52:19.200,DNIT - DEPARTAMENTO NACIONAL DE INFRAESTRUTURA DE TRANSPORTES,ASA NORTE,BRASILIA,DF,"Ed.The Union, Smpw Trecho 3 Q 2 Q 1 Conjunto 2, Brasilia, DF",SMAS TRECHO 3 - BRASILIA - DF - BRASILIA,-15.789992,-47.874968,-15.836361,-47.951692,-15.836093,-47.951018,,
TAXIGOV_DF,626181.0,Ministério do Turismo,CONCLUÍDA,4 - OUTROS,0.77,7.1,2022-08-11 09:30:17.680,2022-08-11 09:30:29.510,2022-08-11 09:31:49.153,2022-08-11 09:32:20.183,2022-08-11 09:34:19.597,EMI BLOCO B,BRASILIA,BRASILIA,DF,"Ministerio do Turismo (MTur), Esplanada dos Ministerios, Bl. U, Brasilia, Brasilia, DF",ESPLANADA DOS MINISTERIOS - ZONA CIVICOADMINISTRATIVA - 70050-000 - BRASILIA - DF - BRASILIA,-15.799277,-47.871994,-15.796310,-47.867974,-15.797647,-47.867006,,
TAXIGOV_DF,626182.0,MCTIC,CONCLUÍDA,1 - REUNIAO EXTERNA,11.06,39.26,2022-08-11 09:30:22.120,2022-08-11 09:31:05.410,2022-08-11 09:41:25.260,2022-08-11 09:41:27.823,2022-08-11 09:55:53.250,"SETOR POLICIAL SUL, AREA 5, BLOCO E",BRASILIA,BRASILIA,DF,"Ministerio da Ciencia, Tecnologia, Inovacoes e Comunicacoes, Esplanada dos Ministerios, Bl. E, Brasilia, Brasilia, DF",ESPLANADA DOS MINISTERIOS - ZONA CIVICOADMINISTRATIVA - 70050-000 - BRASILIA - DF - BRASILIA,-15.816842,-47.943675,-15.799653,-47.869983,-15.799812,-47.869909,,
TAXIGOV_DF,626183.0,Ministério Cidadania,CONCLUÍDA,1 - REUNIAO EXTERNA,10.34,36.69,2022-08-11 09:30:46.327,2022-08-11 09:30:58.120,2022-08-11 09:33:10.853,2022-08-11 09:33:34.547,2022-08-11 09:52:46.800,"SAAN QUADRA 4, 916",BRASILIA,BRASILIA,DF,"Emi Bloco A, Brasilia, Brasilia, DF",ESPLANADA DOS MINISTERIOS - ZONA CIVICOADMINISTRATIVA - 70050-000 - BRASILIA - DF - BRASILIA,-15.758885,-47.931874,-15.798670,-47.873298,-15.798445,-47.873100,,
TAXIGOV_DF,626184.0,Ministério da Economia,CONCLUÍDA,1 - REUNIAO EXTERNA,2.41,8.55,2022-08-11 09:31:46.447,2022-08-11 09:32:45.830,2022-08-11 09:40:41.290,2022-08-11 09:40:41.560,2022-08-11 09:45:47.430,MINISTERIO DA DEFESA ANEXO 1,ASA NORTE,BRASILIA,DF,"Ministerio da Fazenda (Orgaos Centrais), Saus Quadra 6, Asa Sul, Brasilia, DF",SQS 402 BLOCO N - ASA SUL - 70236-140 - BRASILIA - DF - BRASILIA,-15.794415,-47.870281,-15.805996,-47.881467,-15.806221,-47.880903,,
TAXIGOV_DF,626185.0,Ministério da Mulher,CONCLUÍDA,1 - REUNIAO EXTERNA,3.68,13.06,2022-08-11 09:31:54.847,2022-08-11 09:32:05.590,2022-08-11 09:37:34.240,2022-08-11 09:37:41.730,2022-08-11 09:46:05.893,"SECRETARIA NACIONAL DA JUVENTUDE, SBS, 8",ASA SUL,BRASILIA,DF,"SGAN 601 Modulo K, Asa Norte, Brasilia, Distrito Federal",SQN 402 BLOCO F - ASA NORTE - 70834-060 - BRASILIA - DF - BRASILIA,-15.800486,-47.882294,-15.787022,-47.871700,-15.786883,-47.871720,2022-08-15 15:24:30.630,
TAXIGOV_DF,626188.0,Ministério da Economia,CONCLUÍDA,1 - REUNIAO EXTERNA,2.71,9.61,2022-08-11 09:33:27.430,2022-08-11 09:33:35.257,2022-08-11 09:35:25.183,2022-08-11 09:35:56.133,2022-08-11 09:43:06.807,ESPLANADA DOS MINISTERIOS,ZONA CIVICO-ADMINISTRATIVA,BRASILIA,DF,"Servico Federal de Processamento de Dados   Regional Brasilia, Asa Norte, Brasilia, DF",SGAN 602 - ASA NORTE - 70830-050 - BRASILIA - DF - BRASILIA,-15.799061,-47.871666,-15.787466,-47.872525,-15.784026,-47.869923,,
TAXIGOV_DF,626193.0,Ministério Cidadania,CONCLUÍDA,1 - REUNIAO EXTERNA,14.17,50.31,2022-08-11 09:36:12.353,2022-08-11 09:36:20.427,2022-08-11 09:41:28.243,2022-08-11 09:42:33.333,2022-08-11 09:58:09.123,"MINISTERIO DA CIDADANIA - MC, EIXO MONUMENTAL",,BRASILIA,DF,"Ed.The Union, Smpw Trecho 3 Q 2 Q 1 Conjunto 2, Brasilia, Distrito Federal",SMAS TRECHO 3 - BRASILIA - DF - BRASILIA,-15.798614,-47.872419,-15.836362,-47.951692,-15.836008,-47.951314,,
TAXIGOV_DF,626201.0,Ministério da Defesa,CONCLUÍDA,1 - REUNIAO EXTERNA,14.1,50.07,2022-08-11 09:40:38.237,2022-08-11 09:40:47.757,2022-08-11 09:44:56.157,2022-08-11 09:45:08.010,2022-08-11 10:04:05.830,ESCOLA SUPERIOR DE DEFESA (ESD),LAGO SUL,BRASILIA,DF,"Ministerio da Defesa, Eixo Monumental, Brasilia, DF",ESPLANADA DOS MINISTERIOS - ZONA CIVICOADMINISTRATIVA - 70050-000 - BRASILIA - DF - BRASILIA,-15.867361,-47.821899,-15.796665,-47.868959,-15.796522,-47.868850,2022-08-16 10:18:50.283,
TAXIGOV_DF,626204.0,Ministério da Infraestrutura,CONCLUÍDA,3 - VISITA TECNICA,6.8,24.14,2022-08-11 09:41:55.140,2022-08-11 09:42:51.903,2022-08-11 09:45:42.743,2022-08-11 09:46:01.653,2022-08-11 09:59:57.933,SGO Q 1 AE,ZONA CIVICOADMINISTRATIVA,BRASILIA,DF,"Ministerio dos Transportes - Anexo A e B, Eixo Monumental, Brasilia, DF",ESPLANADA DOS MINISTERIOS - ZONA CIVICOADMINISTRATIVA - 70050-000 - BRASILIA - DF - BRASILIA,-15.782000,-47.911890,-15.795428,-47.866892,-15.795329,-47.867047,,
TAXIGOV_DF,626205.0,Ministério da Economia,CONCLUÍDA,1 - REUNIAO EXTERNA,0.9,7.1,2022-08-11 09:42:41.417,2022-08-11 09:42:51.633,2022-08-11 09:44:07.603,2022-08-11 09:44:56.473,2022-08-11 09:48:05.440,BLOCO K - ESPLANADA DOS MINISTERIOS,PA 2,BRASILIA,DF,"Ministerio da Economia - Bloco C, Esplanada dos Ministerios, Zona Civico-Administrativa, Brasilia, DF",ESPLANADA DOS MINISTERIOS - ZONA CIVICOADMINISTRATIVA - 70050-000 - BRASILIA - DF - BRASILIA,-15.794735,-47.873864,-15.799061,-47.871666,-15.798978,-47.871375,,
TAXIGOV_DF,626206.0,Ministério da Mulher,CONCLUÍDA,1 - REUNIAO EXTERNA,1.1,7.1,2022-08-11 09:43:02.630,2022-08-11 09:43:06.337,2022-08-11 09:47:13.370,2022-08-11 09:55:25.993,2022-08-11 09:57:42.710,"MINISTERIO DA MULHER, DA FAMILIA E DOS DIREITOS HUMANOS",PA 2,BRASILIA,DF,"Palacio da Justica - Ministerio da Justica e Seguranca Publica, Brasilia, DF",ESPLANADA DOS MINISTERIOS - ZONA CIVICOADMINISTRATIVA - 70050-000 - BRASILIA - DF - BRASILIA,-15.798489,-47.873138,-15.797654,-47.865830,-15.796735,-47.866100,,
TAXIGOV_DF,626208.0,Ministério da Mulher,CONCLUÍDA,1 - REUNIAO EXTERNA,4.94,17.53,2022-08-11 09:43:11.967,2022-08-11 09:43:29.347,2022-08-11 09:46:31.787,2022-08-11 09:47:06.947,2022-08-11 09:56:34.690,EDIFICIO PARQUE CIDADE CORPORATE,ASA SUL,BRASILIA,DF,"UNICEF-Fundo das Nacoes Unidas para a Infancia, SHCGN 705 Bl. A, Asa Norte, Brasilia, DF",SCLRN 710 BLOCO A - ASA NORTE - 70750-531 - BRASILIA - DF - BRASILIA,-15.794493,-47.893340,-15.759868,-47.891887,-15.760272,-47.891983,,
TAXIGOV_DF,626210.0,Ministério da Mulher,CONCLUÍDA,1 - REUNIAO EXTERNA,2.63,9.33,2022-08-11 09:43:21.710,2022-08-11 09:43:33.400,2022-08-11 09:49:23.780,2022-08-11 09:49:35.720,2022-08-11 09:54:47.263,"SCS QD. 9, LT. C",BRASILIA,BRASILIA,DF,"Ministerio da Cidadania, Esplanada do Ministerio, Brasilia, Brasilia, DF",ESPLANADA DOS MINISTERIOS - ZONA CIVICOADMINISTRATIVA - 70050-000 - BRASILIA - DF - BRASILIA,-15.795332,-47.893476,-15.798331,-47.873341,-15.798753,-47.873207,2022-08-16 21:47:23.577,
TAXIGOV_DF,626212.0,Ministério Cidadania,CONCLUÍDA,1 - REUNIAO EXTERNA,10.94,38.82,2022-08-11 09:43:44.407,2022-08-11 09:44:56.570,2022-08-11 09:48:51.110,2022-08-11 09:50:18.057,2022-08-11 10:08:28.747,ESPLANADA DO MINISTERIO,BRASILIA,BRASILIA,DF,"CEASA-DF, Brasilia, DF",SIA TRECHO 14 - ZONA INDUSTRIAL GUARA - 71200-140 - BRASILIA - DF - BRASILIA,-15.798331,-47.873341,-15.791519,-47.948707,-15.789332,-47.947514,,
TAXIGOV_DF,626214.0,MAPA - Ministério da Agricultura - Pecuária e Abastecimento,CONCLUÍDA,3 - VISITA TECNICA,32.23,114.42,2022-08-11 09:46:14.643,2022-08-11 09:46:26.670,2022-08-11 09:46:42.943,2022-08-11 09:46:45.280,2022-08-11 11:02:19.340,"RIACHO FUNDO 1, FAZENDA SUCUPIRA DA EMBRAPA",PA 23,BRASILIA,DF,"ANEXO MINISTERIO DA AGRICULTURA, - PA 1",ESPLANADA DOS MINISTERIOS - ZONA CIVICOADMINISTRATIVA - 70050-000 - BRASILIA - DF - BRASILIA,-15.893322,-48.013806,-15.80047,-47.87149,-15.801035,-47.871041,,
TAXIGOV_DF,626216.0,Ministério da Infraestrutura,CONCLUÍDA,4 - OUTROS,1.64,7.1,2022-08-11 09:47:35.173,2022-08-11 09:47:45.773,2022-08-11 09:51:51.077,2022-08-11 09:52:00.727,2022-08-11 09:58:51.410,"MINISTERIO DOS TRANSPORTES - ANEXO A E B, EIXO MONUMENTAL",ASA SUL,BRASILIA,DF,"Palacio do Planalto - Anexo I, Praca dos Tres Poderes, ZONA CIVICOADMINISTRATIVA, BRASILIA, DF",PC DOS TRES PODERES - ZONA CIVICOADMINISTRATIVA - 70100-000 - BRASILIA - DF - BRASILIA,-15.795428,-47.866892,-15.799513,-47.859512,-15.799875,-47.859499,,
TAXIGOV_DF,626217.0,Ministério Cidadania,CONCLUÍDA,1 - REUNIAO EXTERNA,12.16,43.18,2022-08-11 09:47:35.500,2022-08-11 09:47:41.327,2022-08-11 09:47:52.393,2022-08-11 09:59:11.807,2022-08-11 10:14:48.270,"SMAS THE UNION,",PA 11,BRASILIA,DF,"MINISTERIO DA ECONOMIA BL C, - PA 1",ESPLANADA DOS MINISTERIOS - ZONA CIVICOADMINISTRATIVA - 70050-000 - BRASILIA - DF - BRASILIA,-15.83611,-47.95090,-15.79888,-47.87152,-15.799281,-47.871554,,
TAXIGOV_DF,626218.0,Ministério da Economia,CONCLUÍDA,1 - REUNIAO EXTERNA,1.37,7.1,2022-08-11 09:48:51.323,2022-08-11 09:48:59.850,2022-08-11 09:51:39.230,2022-08-11 09:52:47.263,2022-08-11 09:57:46.693,MINISTERIO DA ECONOMIA - BLOCO K,PA 2,BRASILIA,DF,"Ministerio da Economia - Bloco F, Anexo B, Brasilia, DF",ESPLANADA DOS MINISTERIOS - ZONA CIVICOADMINISTRATIVA - 70050-000 - BRASILIA - DF - BRASILIA,-15.794738,-47.873794,-15.80139,-47.869905,-15.801572,-47.869355,,
TAXIGOV_DF,626221.0,Ministério da Saúde,CONCLUÍDA,1 - REUNIAO EXTERNA,11.04,39.18,2022-08-11 09:49:42.993,2022-08-11 09:51:47.847,2022-08-11 09:54:53.353,2022-08-11 09:55:58.397,2022-08-11 10:11:29.267,SRTVN QUADRA 03,BRASILIA,BRASILIA,DF,"Rua 9, Asa Sul, Brasilia, DF",R 25 - VILA DA TELEBRASILIA - 70210-145 - BRASILIA - DF - BRASILIA,-15.783535,-47.890305,-15.846240,-47.921705,-15.846081,-47.921177,2022-08-15 16:03:13.870,
TAXIGOV_DF,626224.0,Ministério da Educação,CONCLUÍDA,2 - ENTREGA DE DOCUMENTOS,1.36,7.1,2022-08-11 09:52:02.520,2022-08-11 09:53:06.147,2022-08-11 09:57:30.983,2022-08-11 09:58:33.540,2022-08-11 10:02:35.760,MINISTÉRIO DA EDUCAÇÃO,,BRASÍLIA,DF,MINISTÉRIO DAS RELAÇÕES EXTERIORES — ANEXO I - BRASÍLIA / DF,ESPLANADA DOS MINISTERIOS - ZONA CIVICOADMINISTRATIVA - 70050-000 - BRASILIA - DF - BRASÍLIA,-15.795007,-47.873047,-15.801225,-47.867571,-15.800545,-47.868333,,
TAXIGOV_DF,626225.0,Advocacia Geral da União,CONCLUÍDA,1 - REUNIAO EXTERNA,5.54,19.66,2022-08-11 09:52:25.647,2022-08-11 09:52:34.130,2022-08-11 09:55:29.607,2022-08-11 09:55:36.823,2022-08-11 10:04:48.853,ADVOCACIA-GERAL DA UNIAO,ASA SUL,BRASILIA,DF,"Abba Lavanderia Industrial, Asa Norte, Brasilia, DF",SCLRN 705 BLOCO F - ASA NORTE - 70730-556 - BRASILIA - DF - BRASILIA,-15.802307,-47.880460,-15.772587,-47.889328,-15.772549,-47.889238,,
TAXIGOV_DF,626227.0,Ministério da Defesa,CONCLUÍDA,1 - REUNIAO EXTERNA,12.52,44.45,2022-08-11 09:54:01.350,2022-08-11 09:55:28.930,2022-08-11 09:57:18.637,2022-08-11 09:58:26.357,2022-08-11 10:16:47.280,"MINISTERIO DA DEFESA, EIXO MONUMENTAL",,BRASILIA,DF,"Escola Superior de Defesa (ESD), Brasilia, Distrito Federal",POLO DE ARTESANATO - SETOR DE HABITACOES INDIVIDUAIS SUL - 71679-600 - BRASILIA - DF - BRASILIA,-15.796665,-47.868959,-15.867362,-47.821899,-15.868305,-47.823535,2022-08-15 17:25:21.497,
TAXIGOV_DF,626228.0,Presidência da República,CONCLUÍDA,2 - ENTREGA DE DOCUMENTOS,1.62,7.1,2022-08-11 09:54:23.440,2022-08-11 09:54:32.277,2022-08-11 09:55:04.117,2022-08-11 09:55:11.073,2022-08-11 10:19:28.200,"QG DO EXERCITO,",PA 32,BRASILIA,DF,"SMU HMAB, - SMU",QRO CJ 7 - SETOR MILITAR URBANO - 70630-221 - BRASILIA - DF - BRASILIA,-15.77233,-47.91702,-15.77242,-47.93008,-15.773095,-47.930014,,
TAXIGOV_DF,626229.0,Presidência da República,CONCLUÍDA,2 - ENTREGA DE DOCUMENTOS,2.92,10.35,2022-08-11 09:54:29.877,2022-08-11 09:54:42.137,2022-08-11 10:00:54.920,2022-08-11 10:01:15.760,2022-08-11 10:07:38.833,"PRESIDENCIA DA REPUBLICA - ANEXO I, BRASILIA",ZONA CIVICOADMINISTRATIVA,BRASILIA,DF,"Palacio Itamaraty, Brasilia, Distrito Federal",ESPLANADA DOS MINISTERIOS - ZONA CIVICOADMINISTRATIVA - 70050-000 - BRASILIA - DF - BRASILIA,-15.799438,-47.859390,-15.800679,-47.867296,-15.801413,-47.867429,,
TAXIGOV_DF,626230.0,Ministério Cidadania,CONCLUÍDA,1 - REUNIAO EXTERNA,11.45,40.64,2022-08-11 09:54:53.720,2022-08-11 09:55:04.100,2022-08-11 09:55:26.653,2022-08-11 09:58:46.180,2022-08-11 10:17:19.413,ESPLANADA DOS MINISTERIOS - BLOCO C,BRASILIA,BRASILIA,DF,"CEASA-DF, Brasilia, DF",SIA TRECHO 14 - ZONA INDUSTRIAL GUARA - 71200-140 - BRASILIA - DF - BRASILIA,-15.799053,-47.871731,-15.791519,-47.948707,-15.789108,-47.947381,,
TAXIGOV_DF,626231.0,Ministério da Infraestrutura,CONCLUÍDA,2 - ENTREGA DE DOCUMENTOS,3.76,13.35,2022-08-11 09:56:14.127,2022-08-11 09:56:32.567,2022-08-11 10:05:02.677,2022-08-11 10:05:05.010,2022-08-11 10:12:42.920,MINISTÉRIO DA INFRAESTRUTURA,,BRASÍLIA,DF,CONTROLADORIA-GERAL DA UNIÃO - SEDE - ASA SUL - BRASÍLIA / DF,SAUS QUADRA 2 - ASA SUL - 70070-020 - BRASILIA - DF - BRASÍLIA,-15.797228,-47.867310,-15.800753,-47.878298,-15.800831,-47.878698,,
TAXIGOV_DF,626234.0,Ministério da Justiça,CONCLUÍDA,1 - REUNIAO EXTERNA,3.22,11.44,2022-08-11 09:58:10.100,2022-08-11 09:58:19.947,2022-08-11 09:58:33.570,2022-08-11 10:01:04.180,2022-08-11 10:07:27.900,MINISTERIO DA JUSTICA E CIDADANIA - ANEXO II,,BRASILIA,DF,"Multibrasil Corporate - POLICIA FEDERAL Nova Sede, Asa Norte, Brasilia, DF",SHN QUADRA 3 BLOCO F - ASA NORTE - 70703-060 - BRASILIA - DF - BRASILIA,-15.796573,-47.866004,-15.787807,-47.886840,-15.787549,-47.887226,,
TAXIGOV_DF,626235.0,MINISTERIO DO DESENVOLVIMENTO REGIONAL,CONCLUÍDA,1 - REUNIAO EXTERNA,11.17,39.64,2022-08-11 09:58:28.037,2022-08-11 10:00:35.903,2022-08-11 10:07:52.197,2022-08-11 10:08:48.040,2022-08-11 10:28:31.923,MINISTERIO DO DESENVOLVIMENTO REGIONAL - ED. CELSO FURTADO,ASA NORTE,BRASILIA,DF,"Policia Rodoviaria Federal, Brasilia, DF",SPO - BRASILIA - DF - BRASILIA,-15.770219,-47.893141,-15.814463,-47.947063,-15.815056,-47.946581,,
TAXIGOV_DF,626236.0,MAPA - Ministério da Agricultura - Pecuária e Abastecimento,CANCELADA,1 - REUNIAO EXTERNA,,7.1,2022-08-11 09:59:25.733,2022-08-11 09:59:48.543,2022-08-11 10:10:29.277,2022-08-11 10:09:48.543,2022-08-11 10:10:43.840,SAUN,BRASILIA,BRASILIA,DF,"Ministerio da Agricultura, Pecuaria e Abastecimento, Brasilia, DF",,-15.790169,-47.877163,-15.799534,-47.870929,,,,
TAXIGOV_DF,626238.0,Ministério Cidadania,CONCLUÍDA,1 - REUNIAO EXTERNA,11.09,39.38,2022-08-11 09:59:52.950,2022-08-11 10:00:03.687,2022-08-11 10:03:38.420,2022-08-11 10:04:06.453,2022-08-11 10:16:27.053,"SAAN QUADRA 4, 916",BRASILIA,BRASILIA,DF,"Ed.The Union, Smpw Trecho 3 Q 2 Q 1 Conjunto 2, Brasilia, DF",SMAS TRECHO 3 - BRASILIA - DF - BRASILIA,-15.758789,-47.931868,-15.836361,-47.951692,-15.836052,-47.951127,,
TAXIGOV_DF,626240.0,Ministério da Economia,CONCLUÍDA,1 - REUNIAO EXTERNA,1.77,7.1,2022-08-11 10:00:40.880,2022-08-11 10:01:53.910,2022-08-11 10:04:57.380,2022-08-11 10:05:02.643,2022-08-11 10:09:02.860,MINISTERIO DA ECONOMIA - BLOCO K,PA 2,BRASILIA,DF,"Ministerio da Economia - Bloco F, Anexo B, Brasilia, DF",ESPLANADA DOS MINISTERIOS - ZONA CIVICOADMINISTRATIVA - 70050-000 - BRASILIA - DF - BRASILIA,-15.794738,-47.873794,-15.80139,-47.869905,-15.801567,-47.869365,,
TAXIGOV_DF,626241.0,MINISTERIO DO DESENVOLVIMENTO REGIONAL,CONCLUÍDA,1 - REUNIAO EXTERNA,6.14,21.78,2022-08-11 10:01:17.637,2022-08-11 10:01:36.087,2022-08-11 10:03:32.213,2022-08-11 10:05:54.387,2022-08-11 10:20:09.057,"ESPLANADA DOS MINISTERIOS, BL. E",BRASILIA,BRASILIA,DF,"Ministerio do Desenvolvimento Regional - Ed. Celso Furtado, Asa Norte, Brasilia, DF",SCRN 706/707 BLOCO E - ASA NORTE - 70740-650 - BRASILIA - DF - BRASILIA,-15.799653,-47.869983,-15.770219,-47.893141,-15.770399,-47.892809,,
TAXIGOV_DF,626242.0,Ministério da Infraestrutura,CONCLUÍDA,4 - OUTROS,1.52,7.1,2022-08-11 10:02:00.253,2022-08-11 10:02:06.393,2022-08-11 10:03:50.233,2022-08-11 10:10:28.420,2022-08-11 10:15:53.327,"PALACIO DO PLANALTO,",PA 1,BRASILIA,DF,"ANEXO MINISTERIO TRANSPORTE COMUNICACAO BLOCO R, - PA 2",ESPLANADA DOS MINISTERIOS - ZONA CIVICOADMINISTRATIVA - 70050-000 - BRASILIA - DF - BRASILIA,-15.79869,-47.86138,-15.79515,-47.86700,-15.795311,-47.867054,,
TAXIGOV_DF,626243.0,Presidência da República,CONCLUÍDA,1 - REUNIAO EXTERNA,8.32,29.53,2022-08-11 10:02:19.943,2022-08-11 10:02:27.387,2022-08-11 10:02:45.190,2022-08-11 10:39:17.057,2022-08-11 10:58:34.770,"HOSPITAL HFA,",PA 31,BRASILIA,DF,"SAAN, sabim - PA 32",SAAN QUADRA 3 - ZONA INDUSTRIAL - 70632-300 - BRASILIA - DF - BRASILIA,-15.793956,-47.926463,-15.761278,-47.939079,-15.765194,-47.934676,,
TAXIGOV_DF,626244.0,Ministério da Economia,CANCELADA,1 - REUNIAO EXTERNA,,,2022-08-11 10:02:40.477,2022-08-11 10:04:04.647,,2022-08-11 10:04:04.647,2022-08-11 10:04:06.643,MINISTERIO DA ECONOMIA - BLOCO K,PA 2,BRASILIA,DF,"Ministerio da Economia - Bloco F, Anexo B, Brasilia, DF",,-15.794738,-47.873794,-15.80139,-47.869905,,,,
TAXIGOV_DF,626252.0,Ministério da Mulher,CANCELADA,1 - REUNIAO EXTERNA,,,2022-08-11 10:05:59.820,2022-08-11 10:08:19.880,,2022-08-11 10:08:19.880,2022-08-11 10:08:20.237,PALACIO DA JUSTICA - MINISTERIO DA JUSTICA E SEGURANCA PUBLICA,ASA SUL,BRASILIA,DF,"Ministerio da Mulher, da Familia e dos Direitos Humanos, Brasilia, DF",,-15.797654,-47.865830,-15.798489,-47.873138,,,,
TAXIGOV_DF,626253.0,MINISTERIO DO DESENVOLVIMENTO REGIONAL,CONCLUÍDA,1 - REUNIAO EXTERNA,5.44,19.3,2022-08-11 10:06:22.350,2022-08-11 10:08:55.057,2022-08-11 10:14:36.027,2022-08-11 10:14:52.490,2022-08-11 10:24:12.457,MINISTERIO DO DESENVOLVIMENTO REGIONAL - ED. CELSO FURTADO,ASA NORTE,BRASILIA,DF,"Emi Bloco E, Brasilia, Brasilia, DF",ESPLANADA DOS MINISTERIOS - ZONA CIVICOADMINISTRATIVA - 70050-000 - BRASILIA - DF - BRASILIA,-15.770219,-47.893141,-15.799786,-47.869850,-15.799739,-47.869872,,
TAXIGOV_DF,626254.0,Advocacia Geral da União,CONCLUÍDA,1 - REUNIAO EXTERNA,5.65,20.07,2022-08-11 10:06:32.533,2022-08-11 10:06:39.267,2022-08-11 10:06:47.210,2022-08-11 10:06:51.867,2022-08-11 10:18:40.360,"705 NORTE ABBA LAVANDERIA,",ASA NORTE,BRASILIA,DF,"SAUS QUADRA 3 AGU, - ASA SUL",SAUS QUADRA 3 - ASA SUL - 70070-030 - BRASILIA - DF - BRASILIA,-15.77373,-47.88892,-15.80212,-47.88036,-15.802750,-47.880448,,
TAXIGOV_DF,626262.0,Ministério da Mulher,CONCLUÍDA,1 - REUNIAO EXTERNA,1.77,7.1,2022-08-11 10:08:28.240,2022-08-11 10:10:12.617,2022-08-11 10:12:13.480,2022-08-11 10:12:32.370,2022-08-11 10:17:12.030,PALACIO DA JUSTICA - MINISTERIO DA JUSTICA E SEGURANCA PUBLICA,ASA SUL,BRASILIA,DF,"Ministerio da Mulher, da Familia e dos Direitos Humanos, Brasilia, DF",ESPLANADA DOS MINISTERIOS - ZONA CIVICOADMINISTRATIVA - 70050-000 - BRASILIA - DF - BRASILIA,-15.797654,-47.865830,-15.798489,-47.873138,-15.798757,-47.873242,,
TAXIGOV_DF,626264.0,Ministério da Educação,CONCLUÍDA,1 - REUNIAO EXTERNA,6.36,22.58,2022-08-11 10:08:46.603,2022-08-11 10:10:37.707,2022-08-11 10:16:28.903,2022-08-11 10:16:31.620,2022-08-11 10:25:11.527,MINISTERIO DA EDUCACAO (MEC),BRASILIA,BRASILIA,DF,"Conselho Nacional de Educacao - MEC, Asa Sul, Brasilia, DF",SGAS 607 - ASA SUL - 70200-670 - BRASILIA - DF - BRASILIA,-15.794903,-47.873218,-15.822055,-47.894821,-15.821985,-47.894957,,
TAXIGOV_DF,626268.0,Presidência da República,CONCLUÍDA,1 - REUNIAO EXTERNA,1.09,7.1,2022-08-11 10:10:30.360,2022-08-11 10:10:38.407,2022-08-11 10:12:46.313,2022-08-11 10:13:12.180,2022-08-11 10:16:49.447,"TRIBUNAL DE CONTAS DA UNIAO, SAFS 4, 01",ASA SUL,BRASILIA,DF,"Palacio do Planalto, Brasilia, Distrito Federal",PC DOS TRES PODERES - ZONA CIVICOADMINISTRATIVA - 70100-000 - BRASILIA - DF - BRASILIA,-15.803851,-47.863196,-15.799049,-47.860769,-15.799493,-47.861614,,
TAXIGOV_DF,626270.0,Ministério da Defesa,CONCLUÍDA,1 - REUNIAO EXTERNA,7.39,26.22,2022-08-11 10:13:21.610,2022-08-11 10:15:40.693,2022-08-11 10:17:17.763,2022-08-11 10:17:55.353,2022-08-11 10:28:58.060,EM BLOCO Q,BRASILIA,BRASILIA,DF,"Diretoria de Fiscalizacao de Produtos Controlados, Brasilia, DF",SMU - BRASILIA - DF - BRASILIA,-15.796506,-47.868575,-15.775216,-47.916952,-15.772205,-47.91711,2022-08-17 16:51:18.583,
TAXIGOV_DF,626271.0,Ministério da Economia,CONCLUÍDA,1 - REUNIAO EXTERNA,8.81,31.28,2022-08-11 10:13:56.363,2022-08-11 10:16:06.033,2022-08-11 10:18:51.043,2022-08-11 10:19:01.073,2022-08-11 10:31:39.397,EIXO MONUMENTAL,PA 2,BRASILIA,DF,"Secretaria de Orcamento Federal, Asa Norte, Brasilia, DF",SEPN 516 BLOCO C - ASA NORTE - 70770-523 - BRASILIA - DF - BRASILIA,-15.796395,-47.869913,-15.739945,-47.898085,-15.739906,-47.897934,,
TAXIGOV_DF,626272.0,Ministério Cidadania,CONCLUÍDA,3 - VISITA TECNICA,12.05,42.77,2022-08-11 10:14:16.877,2022-08-11 10:14:26.413,2022-08-11 10:21:50.527,2022-08-11 10:22:02.980,2022-08-11 10:37:34.777,SMPW TRECHO 3 Q 2 Q 1 CONJUNTO 2,ASA SUL,BRASILIA,DF,"Ministerio da Cidadania - GM/MC, Brasilia, DF",ESPLANADA DOS MINISTERIOS - ZONA CIVICOADMINISTRATIVA - 70050-000 - BRASILIA - DF - BRASILIA,-15.836361,-47.951692,-15.798405,-47.873197,-15.798752,-47.873286,,
TAXIGOV_DF,626273.0,Ministério Cidadania,CONCLUÍDA,1 - REUNIAO EXTERNA,11.15,39.59,2022-08-11 10:14:53.303,2022-08-11 10:15:04.380,2022-08-11 10:15:24.900,2022-08-11 10:18:05.137,2022-08-11 10:32:29.100,"THE UNION, SMAS TR. 3, LT. 1",ASA SUL,BRASILIA,DF,"SAAN Quadra 4, Brasilia, Distrito Federal",SAAN QUADRA 4 - ZONA INDUSTRIAL - 70632-400 - BRASILIA - DF - BRASILIA,-15.836099,-47.951127,-15.760139,-47.931871,-15.758825,-47.931700,,
TAXIGOV_DF,626274.0,Ministério das Relaçoes Exteriores,CONCLUÍDA,3 - VISITA TECNICA,7.91,28.07,2022-08-11 10:15:11.520,2022-08-11 10:15:22.873,2022-08-11 10:18:58.517,2022-08-11 10:27:04.983,2022-08-11 10:38:59.050,BANCO DO BRASIL - ITAMARATY - AGENCIA 1503,PA 2,BRASILIA,DF,"BL P, Asa Norte, Brasilia, DF",SQN 411 BLOCO P - ASA NORTE - 70866-160 - BRASILIA - DF - BRASILIA,-15.801014,-47.867922,-15.751463,-47.881100,-15.75157,-47.880895,2022-08-17 15:16:15.240,
TAXIGOV_DF,626275.0,Ministério da Economia,CONCLUÍDA,1 - REUNIAO EXTERNA,2.84,10.1,2022-08-11 10:16:12.363,2022-08-11 10:16:30.370,2022-08-11 10:21:16.827,2022-08-11 10:22:45.020,2022-08-11 10:29:29.133,SERVICO FEDERAL DE PROCESSAMENTO DE DADOS   REGIONAL BRASILIA,ASA NORTE,BRASILIA,DF,"Ministerio da Economia - Bloco K, Brasilia, DF",ESPLANADA DOS MINISTERIOS - ZONA CIVICOADMINISTRATIVA - 70050-000 - BRASILIA - DF - BRASILIA,-15.787466,-47.872525,-15.794738,-47.873794,-15.794707,-47.873635,,
TAXIGOV_DF,626276.0,Ministério da Infraestrutura,CONCLUÍDA,2 - ENTREGA DE DOCUMENTOS,2.78,9.85,2022-08-11 10:16:45.317,2022-08-11 10:16:51.240,2022-08-11 10:22:51.673,2022-08-11 10:23:08.230,2022-08-11 10:28:38.137,"SAUS QUADRA 1 CGU,",ASA SUL,BRASILIA,DF,"SCN, POLICIA FEDERAL - PA 14",SHN QUADRA 3 BLOCO F - ASA NORTE - 70703-060 - BRASILIA - DF - BRASILIA,-15.80058,-47.87825,-15.783903,-47.890035,-15.787686,-47.887318,,
TAXIGOV_DF,626281.0,Ministério Cidadania,CONCLUÍDA,1 - REUNIAO EXTERNA,11.1,39.41,2022-08-11 10:20:23.457,2022-08-11 10:20:32.213,2022-08-11 10:23:05.573,2022-08-11 10:23:19.820,2022-08-11 10:36:07.463,"SAAN QUADRA 4, 916",BRASILIA,BRASILIA,DF,"Ed.The Union, Smpw Trecho 3 Q 2 Q 1 Conjunto 2, Brasilia, Distrito Federal",SMAS TRECHO 3 - BRASILIA - DF - BRASILIA,-15.758909,-47.931797,-15.836362,-47.951692,-15.836056,-47.951124,,
TAXIGOV_DF,626282.0,Ministério da Saúde,CONCLUÍDA,1 - REUNIAO EXTERNA,4.45,15.78,2022-08-11 10:20:55.100,2022-08-11 10:21:22.493,2022-08-11 10:31:21.143,2022-08-11 10:32:05.717,2022-08-11 10:39:27.917,"MINISTERIO DA SAUDE (PO 700), SRTVN QUADRA 701",ASA NORTE,BRASILIA,DF,"Ministerio da Saude - Anexo A, Esplanada dos Ministerios, Bl. G, ZONA CIVICOADMINISTRATIVA, BRASILIA, DF",ESPLANADA DOS MINISTERIOS - ZONA CIVICOADMINISTRATIVA - 70050-000 - BRASILIA - DF - BRASILIA,-15.783608,-47.890240,-15.802029,-47.868713,-15.801603,-47.869229,2022-08-15 16:03:14.127,
TAXIGOV_DF,626283.0,Ministério da Defesa,CONCLUÍDA,1 - REUNIAO EXTERNA,12.29,43.61,2022-08-11 10:20:59.930,2022-08-11 10:22:00.537,2022-08-11 10:24:40.780,2022-08-11 10:24:59.573,2022-08-11 10:39:23.970,EIXO MONUMENTAL,PA 2,BRASILIA,DF,"Escola Superior de Defesa (ESD), Brasilia, DF",RODOVIA DF001 - SETOR HABITACIONAL JARDIM BOTANICO LAGO - 71686-000 - BRASILIA - DF - BRASILIA,-15.796665,-47.868959,-15.867361,-47.821899,-15.867361,-47.822106,2022-08-16 10:19:06.230,
TAXIGOV_DF,626285.0,Ministério da Economia,CONCLUÍDA,1 - REUNIAO EXTERNA,0.65,7.1,2022-08-11 10:21:26.533,2022-08-11 10:21:39.223,2022-08-11 10:25:45.933,2022-08-11 10:26:39.450,2022-08-11 10:30:07.770,ESPLANADA DOS MINISTERIOS,ZONA CIVICO-ADMINISTRATIVA,BRASILIA,DF,"Ministerio da Economia - Bloco J, Brasilia, DF",ESPLANADA DOS MINISTERIOS - ZONA CIVICOADMINISTRATIVA - 70050-000 - BRASILIA - DF - BRASILIA,-15.799061,-47.871666,-15.794871,-47.874750,-15.796473,-47.871154,,
TAXIGOV_DF,626286.0,Presidência da República,CONCLUÍDA,2 - ENTREGA DE DOCUMENTOS,10.87,38.6,2022-08-11 10:22:02.580,2022-08-11 10:22:15.837,2022-08-11 10:22:28.467,2022-08-11 10:22:30.813,2022-08-11 11:10:20.667,"SMU HMAB,",SMU,BRASILIA,DF,"ANEXO PALACIO PLANALTO, ANEXO I - PA 1",PC DOS TRES PODERES - ZONA CIVICOADMINISTRATIVA - 70100-000 - BRASILIA - DF - BRASILIA,-15.77242,-47.93008,-15.79924,-47.85909,-15.799751,-47.859356,,
TAXIGOV_DF,626287.0,MAPA - Ministério da Agricultura - Pecuária e Abastecimento,CONCLUÍDA,4 - OUTROS,6.47,22.97,2022-08-11 10:22:22.177,2022-08-11 10:22:32.437,2022-08-11 10:29:18.293,2022-08-11 10:29:25.700,2022-08-11 10:43:30.850,"MINISTERIO DA AGRICULTURA, PECUARIA E ABASTECIMENTO",,BRASILIA,DF,"Garagem MAPA, SGO Q 3, 1, Srg., Brasilia, Distrito Federal",PC MUNICIPAL - ZONA CIVICOADMINISTRATIVA - 70070-550 - BRASILIA - DF - BRASILIA,-15.799535,-47.870930,-15.780703,-47.910793,-15.781019,-47.911108,,
TAXIGOV_DF,626288.0,Ministério da Economia,CONCLUÍDA,2 - ENTREGA DE DOCUMENTOS,1.65,7.1,2022-08-11 10:22:48.310,2022-08-11 10:24:29.800,2022-08-11 10:28:07.760,2022-08-11 10:29:29.987,2022-08-11 10:32:42.520,ESPLANADA DOS MINISTERIOS,BRASILIA,BRASILIA,DF,"Bloco K - Esplanada dos Ministerios, Brasilia, DF",ESPLANADA DOS MINISTERIOS - ZONA CIVICOADMINISTRATIVA - 70050-000 - BRASILIA - DF - BRASILIA,-15.801744,-47.869829,-15.794735,-47.873864,-15.794845,-47.873627,,
TAXIGOV_DF,626289.0,Ministério da Economia,CONCLUÍDA,1 - REUNIAO EXTERNA,1.89,7.1,2022-08-11 10:23:36.600,2022-08-11 10:24:18.913,2022-08-11 10:27:52.257,2022-08-11 10:28:11.087,2022-08-11 10:33:12.147,"MINISTERIO DA ECONOMIA - BLOCO F, ANEXO B, 5",ASA SUL,BRASILIA,DF,"Ministerio da Economia - Bloco K, Brasilia, DF",ESPLANADA DOS MINISTERIOS - ZONA CIVICOADMINISTRATIVA - 70050-000 - BRASILIA - DF - BRASILIA,-15.80139,-47.869905,-15.794738,-47.873794,-15.794919,-47.873707,,
TAXIGOV_DF,626297.0,MINISTERIO DO DESENVOLVIMENTO REGIONAL,CONCLUÍDA,1 - REUNIAO EXTERNA,5.4,19.17,2022-08-11 10:28:51.813,2022-08-11 10:29:01.123,2022-08-11 10:30:42.183,2022-08-11 10:33:08.277,2022-08-11 10:41:13.387,MINISTERIO DO DESENVOLVIMENTO REGIONAL - ED. CELSO FURTADO,ASA NORTE,BRASILIA,DF,"Ministerio da Ciencia, Tecnologia, Inovacoes e Comunicacoes, Esplanada dos Ministerios, Bl. E, Brasilia, Brasilia, DF",ESPLANADA DOS MINISTERIOS - ZONA CIVICOADMINISTRATIVA - 70050-000 - BRASILIA - DF - BRASILIA,-15.770219,-47.893141,-15.799653,-47.869983,-15.799766,-47.869903,,
TAXIGOV_DF,626300.0,Ministério da Mulher,CANCELADA,1 - REUNIAO EXTERNA,,7.1,2022-08-11 10:30:05.990,2022-08-11 10:35:28.627,,2022-08-11 10:30:05.990,2022-08-11 10:35:28.627,EIXO MONUMENTAL,PA 2,BRASILIA,DF,"Edificio Parque Cidade Corporate, SCS Qd. 9, Lt. C, Brasilia, Brasilia, DF",,-15.798614,-47.872418,-15.795332,-47.893476,,,,
TAXIGOV_DF,626302.0,MINISTERIO DO DESENVOLVIMENTO REGIONAL,CONCLUÍDA,1 - REUNIAO EXTERNA,12.54,44.52,2022-08-11 10:31:31.300,2022-08-11 10:31:37.557,2022-08-11 10:31:52.350,2022-08-11 10:36:51.857,2022-08-11 10:52:52.650,"SPS PRF,",SETOR POLICIAL SUL,BRASILIA,DF,"906 NORTE EDIFÍCIO CELSO FURTADO, - ASA NORTE",SCRN 706/707 BLOCO E - ASA NORTE - 70740-650 - BRASILIA - DF - BRASILIA,-15.81398,47.94692,-15.76991,-47.89318,-15.770311,-47.892920,,
TAXIGOV_DF,626304.0,Ministério da Educação,CONCLUÍDA,2 - ENTREGA DE DOCUMENTOS,1.2,7.1,2022-08-11 10:31:59.527,2022-08-11 10:34:20.890,2022-08-11 10:36:56.513,2022-08-11 10:37:05.793,2022-08-11 10:41:36.127,MINISTÉRIO DA SAÚDE - BLOCO G,,BRASÍLIA,DF,MINISTÉRIO DA EDUCAÇÃO - BRASÍLIA / DF,ESPLANADA DOS MINISTERIOS - ZONA CIVICOADMINISTRATIVA - 70050-000 - BRASILIA - DF - BRASÍLIA,-15.800236,-47.868381,-15.795007,-47.873047,-15.795055,-47.872842,,
TAXIGOV_DF,626305.0,Ministério da Infraestrutura,CONCLUÍDA,2 - ENTREGA DE DOCUMENTOS,4.05,14.39,2022-08-11 10:32:41.660,2022-08-11 10:32:47.660,2022-08-11 10:33:18.347,2022-08-11 10:33:25.313,2022-08-11 10:41:07.360,"SCN, POLICIA FEDERAL",PA 14,BRASILIA,DF,"MINISTERIO COMUNICACAO/TRANSP BL R, - PA 1",ESPLANADA DOS MINISTERIOS - ZONA CIVICOADMINISTRATIVA - 70050-000 - BRASILIA - DF - BRASILIA,-15.783903,-47.890035,-15.79698,-47.86736,-15.796885,-47.867110,,
TAXIGOV_DF,626306.0,Ministério da Saúde,CONCLUÍDA,1 - REUNIAO EXTERNA,4.08,14.47,2022-08-11 10:32:43.087,2022-08-11 10:32:55.973,2022-08-11 10:36:16.357,2022-08-11 10:36:39.870,2022-08-11 10:46:04.220,PO700-MINISTERIO DA SAUDE,ASA NORTE,BRASILIA,DF,"Ministerio da Saude - Bloco G, Brasilia, DF",ESPLANADA DOS MINISTERIOS - ZONA CIVICOADMINISTRATIVA - 70050-000 - BRASILIA - DF - BRASILIA,-15.783626,-47.890344,-15.800236,-47.868381,-15.800214,-47.868241,2022-08-15 16:03:14.380,
TAXIGOV_DF,626311.0,Ministério da Saúde,CONCLUÍDA,1 - REUNIAO EXTERNA,3.58,12.7,2022-08-11 10:34:59.057,2022-08-11 10:35:10.760,2022-08-11 10:37:49.010,2022-08-11 10:38:42.963,2022-08-11 10:44:35.503,SRTVN QUADRA 03,BRASILIA,BRASILIA,DF,"Ministerio do Meio Ambiente, Eixo Monumental, Brasilia, DF",ESPLANADA DOS MINISTERIOS - ZONA CIVICOADMINISTRATIVA - 70050-000 - BRASILIA - DF - BRASILIA,-15.783535,-47.890305,-15.798594,-47.872431,-15.799012,-47.872397,2022-08-15 16:03:14.633,
TAXIGOV_DF,626312.0,Ministério da Mulher,CONCLUÍDA,1 - REUNIAO EXTERNA,4.14,14.69,2022-08-11 10:35:37.227,2022-08-11 10:36:32.693,2022-08-11 10:39:00.547,2022-08-11 10:39:03.153,2022-08-11 10:48:55.400,EIXO MONUMENTAL,PA 2,BRASILIA,DF,"Edificio Parque Cidade Corporate, SCS Qd. 9, Lt. C, Brasilia, Brasilia, DF",SCS QUADRA 9 - ASA SUL - 70308-200 - BRASILIA - DF - BRASILIA,-15.798614,-47.872418,-15.795332,-47.893476,-15.794694,-47.893985,2022-08-16 21:47:23.820,
TAXIGOV_DF,626316.0,Ministério da Educação,CONCLUÍDA,1 - REUNIAO EXTERNA,4.12,14.63,2022-08-11 10:37:58.003,2022-08-11 10:38:06.560,2022-08-11 10:38:37.060,2022-08-11 10:38:37.350,2022-08-11 10:44:41.770,CONSELHO NACIONAL DE EDUCACAO - MEC,ASA SUL,BRASILIA,DF,"Anexo Ministerio da Educacao, Brasilia, DF",ESPLANADA DOS MINISTERIOS - ZONA CIVICOADMINISTRATIVA - 70050-000 - BRASILIA - DF - BRASILIA,-15.822055,-47.894821,-15.793545,-47.872712,-15.793478,-47.872877,,
TAXIGOV_DF,626317.0,Ministério da Economia,CONCLUÍDA,1 - REUNIAO EXTERNA,0.95,7.1,2022-08-11 10:38:08.257,2022-08-11 10:38:17.513,2022-08-11 10:39:28.700,2022-08-11 10:39:42.833,2022-08-11 10:43:01.337,"MINISTERIO DA ECONOMIA - BLOCO F, S/N",ZONA CIVICO-ADMINISTRATIVA,BRASILIA,DF,"Ministerio da Economia - Bloco P, Eixo Monumental, Brasilia, DF",ESPLANADA DOS MINISTERIOS - ZONA CIVICOADMINISTRATIVA - 70050-000 - BRASILIA - DF - BRASILIA,-15.799624,-47.869075,-15.796395,-47.869913,-15.796180,-47.869547,,
TAXIGOV_DF,626318.0,Ministério da Saúde,CONCLUÍDA,1 - REUNIAO EXTERNA,3.78,13.41,2022-08-11 10:38:17.047,2022-08-11 10:38:22.683,2022-08-11 10:41:39.250,2022-08-11 10:41:55.463,2022-08-11 10:48:57.433,PO700-MINISTÉRIO DA SAÚDE,ASA NORTE,BRASÍLIA,DF,OPAS / OMS - ORGANIZAÇÃO MUNDIAL DA SAÚDE - ASA NORTE - BRASÍLIA / DF,SEN - ASA NORTE - 70800-400 - BRASILIA - DF - BRASÍLIA,-15.783626,-47.890344,-15.782723,-47.868350,-15.782965,-47.868382,2022-08-15 16:03:14.887,
TAXIGOV_DF,626319.0,Ministério do Turismo,CONCLUÍDA,1 - REUNIAO EXTERNA,3.43,12.18,2022-08-11 10:39:04.860,2022-08-11 10:39:15.613,2022-08-11 10:45:40.830,2022-08-11 10:46:08.090,2022-08-11 10:54:01.670,VENANCIO SHOPPING,BRASILIA,BRASILIA,DF,"Ministerio do Turismo, n bl U, Brasilia, DF",ESPLANADA DOS MINISTERIOS - ZONA CIVICOADMINISTRATIVA - 70050-000 - BRASILIA - DF - BRASILIA,-15.79526,-47.892071,-15.796887,-47.868230,-15.796668,-47.867939,,
TAXIGOV_DF,626321.0,Ministério Cidadania,CONCLUÍDA,1 - REUNIAO EXTERNA,10.94,38.82,2022-08-11 10:39:31.393,2022-08-11 10:39:41.103,2022-08-11 10:39:52.143,2022-08-11 11:00:41.810,2022-08-11 11:14:06.347,"SAAN QUADRA 4,",ZONA INDUSTRIAL,BRASILIA,DF,"SMAS THE UNION, - PA 11",SMAS TRECHO 3 - BRASILIA - DF - BRASILIA,-15.759371,-47.93101,-15.83611,-47.95090,-15.836031,-47.951189,,
TAXIGOV_DF,626323.0,Ministério das Relaçoes Exteriores,CONCLUÍDA,3 - VISITA TECNICA,9.76,34.65,2022-08-11 10:40:58.247,2022-08-11 10:41:06.693,2022-08-11 10:41:46.107,2022-08-11 11:07:13.060,2022-08-11 11:26:12.437,"SQN 411 BLOCO P,",ASA NORTE,BRASILIA,DF,"PALACIO DO ITAMARATY, - PA 1",ESPLANADA DOS MINISTERIOS - ZONA CIVICOADMINISTRATIVA - 70050-000 - BRASILIA - DF - BRASILIA,-15.75147,-47.881083,-15.80054,-47.86720,-15.800001,-47.868069,2022-08-17 15:16:15.493,
TAXIGOV_DF,626332.0,Ministério Cidadania,CANCELADA,1 - REUNIAO EXTERNA,,7.1,2022-08-11 10:43:02.990,2022-08-11 10:43:16.587,,2022-08-11 10:43:16.587,2022-08-11 11:04:04.433,"SAAN QUADRA 4, 916",BRASILIA,BRASILIA,DF,"Ministerio da Cidadania - GM/MC, Brasilia, DF",,-15.758789,-47.931868,-15.798405,-47.873197,,,,
TAXIGOV_DF,626333.0,Presidência da República,CONCLUÍDA,1 - REUNIAO EXTERNA,11.22,39.84,2022-08-11 10:43:50.177,2022-08-11 10:46:31.927,2022-08-11 10:56:40.027,2022-08-11 10:56:45.013,2022-08-11 11:10:16.727,SHIS QI 5 CONJUNTO 16,SETOR DE HABITACOES INDIVIDUAIS SUL,BRASILIA,DF,"Palacio do Planalto, Brasilia, DF",PC DOS TRES PODERES - ZONA CIVICOADMINISTRATIVA - 70100-000 - BRASILIA - DF - BRASILIA,-15.846064,-47.894775,-15.799048,-47.860768,-15.799255,-47.861826,,
TAXIGOV_DF,626334.0,Ministério da Economia,CONCLUÍDA,1 - REUNIAO EXTERNA,0.67,7.1,2022-08-11 10:43:59.507,2022-08-11 10:44:10.023,2022-08-11 10:47:05.793,2022-08-11 10:47:49.980,2022-08-11 10:50:40.150,MINISTERIO DA ECONOMIA - BLOCO K,PA 2,BRASILIA,DF,"Ministerio da Economia - Bloco P, Eixo Monumental, Brasilia, DF",ESPLANADA DOS MINISTERIOS - ZONA CIVICOADMINISTRATIVA - 70050-000 - BRASILIA - DF - BRASILIA,-15.794738,-47.873794,-15.796395,-47.869913,-15.795026,-47.869597,,
TAXIGOV_DF,626339.0,Presidência da República,CANCELADA,2 - ENTREGA DE DOCUMENTOS,,,2022-08-11 10:46:32.863,2022-08-11 10:46:48.083,,2022-08-11 10:46:48.083,2022-08-11 10:48:51.100,MINISTERIO DA SAUDE - BLOCO G,,BRASILIA,DF,"Presidencia da Republica - Anexo I, Brasilia, ZONA CIVICOADMINISTRATIVA, BRASILIA, DF",,-15.800236,-47.868381,-15.799438,-47.859390,,,,
TAXIGOV_DF,626342.0,Ministério da Economia,CONCLUÍDA,2 - ENTREGA DE DOCUMENTOS,1.32,7.1,2022-08-11 10:47:57.133,2022-08-11 10:48:04.447,2022-08-11 10:50:20.010,2022-08-11 10:50:57.290,2022-08-11 10:54:14.913,BLOCO K - ESPLANADA DOS MINISTERIOS,PA 2,BRASILIA,DF,"Anexo do Ministerio do Trabalho e Emprego, Esplanada dos Ministerios, Brasilia, Brasilia, DF",ESPLANADA DOS MINISTERIOS - ZONA CIVICOADMINISTRATIVA - 70050-000 - BRASILIA - DF - BRASILIA,-15.794735,-47.873864,-15.801744,-47.869829,-15.801574,-47.869322,,
TAXIGOV_DF,626344.0,MAPA - Ministério da Agricultura - Pecuária e Abastecimento,CONCLUÍDA,4 - OUTROS,5.8,20.58,2022-08-11 10:48:16.407,2022-08-11 10:48:25.157,2022-08-11 10:52:18.610,2022-08-11 11:22:13.630,2022-08-11 11:32:12.470,"SGON QD 3 GARAGEM DO MAPA,",SGON,BRASILIA,DF,"MINISTERIO DA AGRICULTURA/ABASTECIMENTO BL D, - PA 1",ESPLANADA DOS MINISTERIOS - ZONA CIVICOADMINISTRATIVA - 70050-000 - BRASILIA - DF - BRASILIA,-15.78060,-47.91086,-15.79948,-47.87096,-15.799497,-47.870755,,
TAXIGOV_DF,626353.0,Ministério do Meio Ambiente,CONCLUÍDA,1 - REUNIAO EXTERNA,1.21,7.1,2022-08-11 10:55:02.510,2022-08-11 10:55:19.880,2022-08-11 10:59:08.523,2022-08-11 10:59:24.727,2022-08-11 11:02:04.013,MINISTÉRIO DO MEIO AMBIENTE,,BRASÍLIA,DF,CÂMARA DOS DEPUTADOS ANEXO IV - ANEXO IV - BRASÍLIA / DF,SAFS QUADRA - ZONA CIVICOADMINISTRATIVA - 70070-600 - BRASILIA - DF - BRASÍLIA,-15.798594,-47.872432,-15.802637,-47.865112,-15.802578,-47.865083,,
TAXIGOV_DF,626356.0,MINISTERIO DO DESENVOLVIMENTO REGIONAL,CONCLUÍDA,1 - REUNIAO EXTERNA,5.8,20.59,2022-08-11 10:57:33.823,2022-08-11 10:57:49.510,2022-08-11 11:01:44.137,2022-08-11 11:02:33.070,2022-08-11 11:11:17.720,MINISTERIO DO DESENVOLVIMENTO REGIONAL - ED. CELSO FURTADO,ASA NORTE,BRASILIA,DF,"Ministerio Do Desenvolvimento Regional, Brasilia, DF",ESPLANADA DOS MINISTERIOS - ZONA CIVICOADMINISTRATIVA - 70050-000 - BRASILIA - DF - BRASILIA,-15.770219,-47.893141,-15.799763,-47.870048,-15.799770,-47.869922,,
TAXIGOV_DF,626357.0,Ministério Cidadania,CONCLUÍDA,1 - REUNIAO EXTERNA,13.51,47.95,2022-08-11 10:57:58.837,2022-08-11 10:58:10.910,2022-08-11 11:05:21.667,2022-08-11 11:05:24.293,2022-08-11 11:22:43.480,SAN QD. 3 BL. A,BRASILIA,BRASILIA,DF,"Ministerio da Economia - Bloco C, Esplanada dos Ministerios, Zona Civico-Administrativa, Brasilia, DF",SMAS TRECHO 3 - BRASILIA - DF - BRASILIA,-15.790708,-47.875234,-15.799061,-47.871666,-15.836070,-47.951020,,
TAXIGOV_DF,626358.0,CENSIPAM,CANCELADA,1 - REUNIAO EXTERNA,,,2022-08-11 10:59:14.420,2022-08-11 10:59:24.863,,2022-08-11 10:59:24.863,2022-08-11 11:03:51.377,SPO 5 QD. 3 BL. K,BRASILIA,BRASILIA,DF,"Banco Itau, Via W3 Sul, Asa Sul, Brasilia, DF",,-15.814703,-47.941096,-15.805473,-47.897882,,,,
TAXIGOV_DF,626361.0,Ministério da Economia,CONCLUÍDA,1 - REUNIAO EXTERNA,3.13,11.1,2022-08-11 11:01:09.463,2022-08-11 11:01:35.540,2022-08-11 11:06:22.153,2022-08-11 11:06:54.980,2022-08-11 11:13:42.797,SAUS QUADRA 6,ASA SUL,BRASILIA,DF,"Ministerio da Defesa Anexo 1, Asa Norte, Brasilia, DF",ESPLANADA DOS MINISTERIOS - ZONA CIVICOADMINISTRATIVA - 70050-000 - BRASILIA - DF - BRASILIA,-15.805996,-47.881467,-15.794415,-47.870281,-15.794250,-47.870402,,
TAXIGOV_DF,626362.0,Presidência da República,CONCLUÍDA,1 - REUNIAO EXTERNA,12.94,45.93,2022-08-11 11:01:42.230,2022-08-11 11:01:50.590,2022-08-11 11:02:05.293,2022-08-11 11:18:02.437,2022-08-11 11:41:30.960,"SAAN, SABIM",PA 32,BRASILIA,DF,"ANEXO PALACIO PLANALTO, - PA 1",PC DOS TRES PODERES - ZONA CIVICOADMINISTRATIVA - 70100-000 - BRASILIA - DF - BRASILIA,-15.761278,-47.939079,-15.79924,-47.85909,-15.799286,-47.858268,,
TAXIGOV_DF,626366.0,Ministério da Defesa,CONCLUÍDA,1 - REUNIAO EXTERNA,14.16,50.28,2022-08-11 11:04:07.457,2022-08-11 11:05:51.900,2022-08-11 11:16:46.123,2022-08-11 11:16:46.820,2022-08-11 11:36:51.630,ESCOLA SUPERIOR DE DEFESA (ESD),LAGO SUL,BRASILIA,DF,"Ministerio da Defesa, Eixo Monumental, Brasilia, Distrito Federal",ESPLANADA DOS MINISTERIOS - ZONA CIVICOADMINISTRATIVA - 70050-000 - BRASILIA - DF - BRASILIA,-15.867362,-47.821899,-15.796665,-47.868959,-15.796263,-47.86873,2022-08-15 17:25:16.873,
TAXIGOV_DF,626369.0,Advocacia Geral da União,CONCLUÍDA,1 - REUNIAO EXTERNA,1.13,7.1,2022-08-11 11:05:04.670,2022-08-11 11:05:20.667,2022-08-11 11:11:52.590,2022-08-11 11:12:16.113,2022-08-11 11:15:14.250,AGU - ADVOCACIA-GERAL DA UNIAO,BRASILIA,BRASILIA,DF,"HBL Carimbos e Placas Industria e Comercio, Brasilia, DF",SDS - ASA SUL - 70300-000 - BRASILIA - DF - BRASILIA,-15.802348,-47.880427,-15.795113,-47.884890,-15.796174,-47.884121,,
TAXIGOV_DF,626370.0,Presidência da República,CONCLUÍDA,1 - REUNIAO EXTERNA,2.9,10.28,2022-08-11 11:05:26.030,2022-08-11 11:05:35.087,2022-08-11 11:10:34.887,2022-08-11 11:14:02.527,2022-08-11 11:20:37.310,"PRESIDENCIA DA REPUBLICA - ANEXO I, BRASILIA",ZONA CIVICOADMINISTRATIVA,BRASILIA,DF,"Estacionamento do Anexo II Camara dos Deputados, Via S2, Brasilia, Distrito Federal",PC DOS TRES PODERES - ZONA CIVICOADMINISTRATIVA - 70100-000 - BRASILIA - DF - BRASILIA,-15.799438,-47.859390,-15.801564,-47.865500,-15.801565,-47.864911,,
TAXIGOV_DF,626373.0,Ministério Cidadania,CONCLUÍDA,1 - REUNIAO EXTERNA,12.23,43.42,2022-08-11 11:07:22.477,2022-08-11 11:07:30.820,2022-08-11 11:11:40.993,2022-08-11 11:11:48.307,2022-08-11 11:27:22.390,SMPW TRECHO 3 Q 2 Q 1 CONJUNTO 2,ASA SUL,BRASILIA,DF,"Ministerio da Cidadania - GM/MC, Brasilia, DF",ESPLANADA DOS MINISTERIOS - ZONA CIVICOADMINISTRATIVA - 70050-000 - BRASILIA - DF - BRASILIA,-15.836361,-47.951692,-15.798405,-47.873197,-15.798799,-47.873208,,
TAXIGOV_DF,626375.0,Ministério da Justiça,CONCLUÍDA,1 - REUNIAO EXTERNA,6.82,24.21,2022-08-11 11:07:55.907,2022-08-11 11:08:12.083,2022-08-11 11:10:13.857,2022-08-11 11:10:52.400,2022-08-11 11:23:14.130,"ESPLANADA DOS MINISTERIOS, BL. T",BRASILIA,BRASILIA,DF,"Escola de Governo do Distrito Federal, Setor de Areas Especiais Norte, 1, Brasilia, DF",PC MUNICIPAL - ZONA CIVICOADMINISTRATIVA - 70070-550 - BRASILIA - DF - BRASILIA,-15.797112,-47.865906,-15.780715,-47.912822,-15.780883,-47.912712,,
TAXIGOV_DF,626379.0,MINISTERIO DO DESENVOLVIMENTO REGIONAL,CONCLUÍDA,1 - REUNIAO EXTERNA,6.57,23.31,2022-08-11 11:13:20.543,2022-08-11 11:13:31.493,2022-08-11 11:15:10.060,2022-08-11 11:16:52.840,2022-08-11 11:29:59.140,"MINISTERIO DA CIENCIA, TECNOLOGIA E INOVACOES - MCTI",ASA SUL,BRASILIA,DF,"Ministerio do Desenvolvimento Regional - Ed. Celso Furtado, Asa Norte, Brasilia, Distrito Federal",SCRN 706/707 BLOCO E - ASA NORTE - 70740-650 - BRASILIA - DF - BRASILIA,-15.799864,-47.870052,-15.770220,-47.893141,-15.770364,-47.892939,,
TAXIGOV_DF,626380.0,Ministério da Defesa,CONCLUÍDA,1 - REUNIAO EXTERNA,8.93,31.71,2022-08-11 11:14:49.123,2022-08-11 11:14:58.133,2022-08-11 11:25:46.777,2022-08-11 11:25:58.653,2022-08-11 11:42:08.580,DIRETORIA DE FISCALIZACAO DE PRODUTOS CONTROLADOS,ASA NORTE,BRASILIA,DF,"Ministerio da Defesa, Eixo Monumental, Brasilia, DF",ESPLANADA DOS MINISTERIOS - ZONA CIVICOADMINISTRATIVA - 70050-000 - BRASILIA - DF - BRASILIA,-15.775216,-47.916952,-15.796665,-47.868959,-15.796355,-47.868768,2022-08-17 16:49:49.243,
TAXIGOV_DF,626381.0,MINISTERIO DO DESENVOLVIMENTO REGIONAL,CONCLUÍDA,1 - REUNIAO EXTERNA,5.47,19.41,2022-08-11 11:14:59.540,2022-08-11 11:15:09.037,2022-08-11 11:15:47.527,2022-08-11 11:16:13.713,2022-08-11 11:27:25.787,MINISTERIO DO DESENVOLVIMENTO REGIONAL,ASA SUL,BRASILIA,DF,"Ministerio do Desenvolvimento Regional - Ed. Celso Furtado, Asa Norte, Brasilia, DF",SCRN 706/707 BLOCO E - ASA NORTE - 70740-650 - BRASILIA - DF - BRASILIA,-15.799763,-47.870048,-15.770219,-47.893141,-15.770343,-47.892921,,
TAXIGOV_DF,626383.0,Ministério da Mulher,CONCLUÍDA,1 - REUNIAO EXTERNA,1.73,7.1,2022-08-11 11:16:10.373,2022-08-11 11:16:28.903,2022-08-11 11:18:35.433,2022-08-11 11:18:45.417,2022-08-11 11:22:47.443,"MINISTERIO DA JUSTICA (MJ), ESPLANADA DOS MINISTERIOS, BL. T",ZONA CIVICOADMINISTRATIVA,BRASILIA,DF,"Ministerio da Cidadania - GM/MC, Brasilia, Distrito Federal",ESPLANADA DOS MINISTERIOS - ZONA CIVICOADMINISTRATIVA - 70050-000 - BRASILIA - DF - BRASILIA,-15.797113,-47.865906,-15.798406,-47.873197,-15.798720,-47.873236,,
TAXIGOV_DF,626384.0,MAPA - Ministério da Agricultura - Pecuária e Abastecimento,CANCELADA,1 - REUNIAO EXTERNA,,,2022-08-11 11:16:41.273,2022-08-11 11:17:00.990,,2022-08-11 11:17:00.990,2022-08-11 11:20:23.197,SAUN,BRASILIA,BRASILIA,DF,"Ministerio da Cidadania - GM/MC, Brasilia, DF",,-15.791740,-47.876180,-15.798405,-47.873197,,,,
TAXIGOV_DF,626387.0,Ministério da Economia,CONCLUÍDA,1 - REUNIAO EXTERNA,0.86,7.1,2022-08-11 11:18:01.573,2022-08-11 11:18:09.870,2022-08-11 11:18:35.910,2022-08-11 11:19:54.817,2022-08-11 11:22:56.300,MINISTERIO DA ECONOMIA - BLOCO K,PA 2,BRASILIA,DF,"Ministerio da Economia - Bloco C, Esplanada dos Ministerios, Zona Civico-Administrativa, Brasilia, DF",ESPLANADA DOS MINISTERIOS - ZONA CIVICOADMINISTRATIVA - 70050-000 - BRASILIA - DF - BRASILIA,-15.794738,-47.873794,-15.799061,-47.871666,-15.799267,-47.871616,,
TAXIGOV_DF,626388.0,Ministério da Infraestrutura,CONCLUÍDA,1 - REUNIAO EXTERNA,6.04,21.46,2022-08-11 11:18:01.767,2022-08-11 11:18:10.127,2022-08-11 11:20:09.763,2022-08-11 11:22:49.497,2022-08-11 11:33:29.613,"SGON R2, 154",BRASILIA,BRASILIA,DF,"Ministerio dos Transportes - Anexo A e B, Eixo Monumental, Brasilia, Distrito Federal",ESPLANADA DOS MINISTERIOS - ZONA CIVICOADMINISTRATIVA - 70050-000 - BRASILIA - DF - BRASILIA,-15.780865,-47.910710,-15.795428,-47.866892,-15.795733,-47.867384,,
TAXIGOV_DF,626390.0,Ministério da Economia,CONCLUÍDA,1 - REUNIAO EXTERNA,1.67,7.1,2022-08-11 11:18:28.120,2022-08-11 11:18:37.353,2022-08-11 11:20:29.090,2022-08-11 11:21:01.710,2022-08-11 11:26:18.497,"MINISTERIO DA ECONOMIA - BLOCO F, ANEXO B, 5",PA 2,BRASILIA,DF,"Ministerio da Economia - Bloco K, Brasilia, DF",ESPLANADA DOS MINISTERIOS - ZONA CIVICOADMINISTRATIVA - 70050-000 - BRASILIA - DF - BRASILIA,-15.80139,-47.869905,-15.794738,-47.873794,-15.794841,-47.873786,,
TAXIGOV_DF,626391.0,Presidência da República,CONCLUÍDA,2 - ENTREGA DE DOCUMENTOS,1.63,7.1,2022-08-11 11:18:32.160,2022-08-11 11:20:42.957,2022-08-11 11:22:00.607,2022-08-11 11:22:26.343,2022-08-11 11:26:31.697,MINISTERIO DA SAUDE - BLOCO G,,BRASILIA,DF,"Presidencia da Republica - Anexo I, Brasilia, ZONA CIVICOADMINISTRATIVA, BRASILIA, DF",PC DOS TRES PODERES - ZONA CIVICOADMINISTRATIVA - 70100-000 - BRASILIA - DF - BRASILIA,-15.800236,-47.868381,-15.799438,-47.859390,-15.799725,-47.859381,,
TAXIGOV_DF,626396.0,MAPA - Ministério da Agricultura - Pecuária e Abastecimento,CONCLUÍDA,1 - REUNIAO EXTERNA,2.74,9.74,2022-08-11 11:20:52.777,2022-08-11 11:21:18.613,2022-08-11 11:25:02.107,2022-08-11 11:25:04.687,2022-08-11 11:32:27.730,MINISTERIO DA CIDADANIA - GM/MC,,BRASILIA,DF,"Palacio do Desenvolvimento, Brasilia, DF",SBN QUADRA 1 - ASA NORTE - 70040-010 - BRASILIA - DF - BRASILIA,-15.798405,-47.873197,-15.790749,-47.879524,-15.791165,-47.879604,2022-08-17 16:16:02.730,
TAXIGOV_DF,626401.0,MAPA - Ministério da Agricultura - Pecuária e Abastecimento,CONCLUÍDA,1 - REUNIAO EXTERNA,2.72,9.64,2022-08-11 11:24:25.823,2022-08-11 11:24:37.757,2022-08-11 11:28:56.857,2022-08-11 11:29:48.290,2022-08-11 11:34:36.433,SETOR HOTELEIRO NORTE,ASA NORTE,BRASILIA,DF,"Ministerio da Economia - Bloco C, Esplanada dos Ministerios, Zona Civico-Administrativa, Brasilia, DF",ESPLANADA DOS MINISTERIOS - ZONA CIVICOADMINISTRATIVA - 70050-000 - BRASILIA - DF - BRASILIA,-15.790502,-47.886048,-15.799061,-47.871666,-15.799297,-47.871549,,
TAXIGOV_DF,626406.0,Ministério da Economia,CONCLUÍDA,1 - REUNIAO EXTERNA,1.83,7.1,2022-08-11 11:26:55.237,2022-08-11 11:27:14.867,2022-08-11 11:32:45.267,2022-08-11 11:32:50.620,2022-08-11 11:36:53.637,"MINISTERIO DA ECONOMIA - BLOCO F, ANEXO B, 5",PA 2,BRASILIA,DF,"Ministerio da Economia - Bloco K, Brasilia, DF",ESPLANADA DOS MINISTERIOS - ZONA CIVICOADMINISTRATIVA - 70050-000 - BRASILIA - DF - BRASILIA,-15.80139,-47.869905,-15.794738,-47.873794,-15.794833,-47.873633,,
TAXIGOV_DF,626410.0,Ministério da Justiça,CONCLUÍDA,1 - REUNIAO EXTERNA,6.53,23.19,2022-08-11 11:27:55.670,2022-08-11 11:28:05.437,2022-08-11 11:32:14.840,2022-08-11 11:32:24.417,2022-08-11 11:44:18.950,SGON QD. 1,BRASILIA,BRASILIA,DF,"Ministerio da Justica (MJ), Esplanada dos Ministerios, Bl. T, Brasilia, Brasilia, DF",ESPLANADA DOS MINISTERIOS - ZONA CIVICOADMINISTRATIVA - 70050-000 - BRASILIA - DF - BRASILIA,-15.781235,-47.912847,-15.797112,-47.865906,-15.796772,-47.866045,,
TAXIGOV_DF,626412.0,Ministério Cidadania,CONCLUÍDA,1 - REUNIAO EXTERNA,14.18,50.34,2022-08-11 11:28:12.247,2022-08-11 11:28:22.070,2022-08-11 11:34:14.843,2022-08-11 11:34:17.467,2022-08-11 11:48:10.640,"EMI BLOCO A,",BRASILIA,BRASILIA,DF,"Ed.The Union, Smpw Trecho 3 Q 2 Q 1 Conjunto 2, Brasilia, Distrito Federal",SMAS TRECHO 3 - BRASILIA - DF - BRASILIA,-15.798613,-47.873345,-15.836362,-47.951692,-15.836109,-47.951054,,
TAXIGOV_DF,626417.0,CENSIPAM,CANCELADA,1 - REUNIAO EXTERNA,,,2022-08-11 11:31:05.247,2022-08-11 11:31:15.960,,2022-08-11 11:31:15.960,2022-08-11 11:33:51.790,SPO 5 QD. 3 BL. K,BRASILIA,BRASILIA,DF,"Banco Itau, Via W3 Sul, Asa Sul, Brasilia, DF",,-15.814703,-47.941096,-15.805473,-47.897882,,,,
TAXIGOV_DF,626421.0,Ministério da Economia,CONCLUÍDA,1 - REUNIAO EXTERNA,8.93,31.7,2022-08-11 11:33:42.157,2022-08-11 11:34:33.037,2022-08-11 11:39:11.890,2022-08-11 11:39:12.260,2022-08-11 11:50:52.573,SECRETARIA DE ORCAMENTO FEDERAL,ASA NORTE,BRASILIA,DF,"Ministerio da Economia - Bloco K, Brasilia, DF",ESPLANADA DOS MINISTERIOS - ZONA CIVICOADMINISTRATIVA - 70050-000 - BRASILIA - DF - BRASILIA,-15.739945,-47.898085,-15.794996,-47.873968,-15.794753,-47.873685,,
TAXIGOV_DF,626428.0,Ministério Cidadania,CONCLUÍDA,1 - REUNIAO EXTERNA,9.36,33.23,2022-08-11 11:39:06.513,2022-08-11 11:39:15.420,2022-08-11 11:45:25.433,2022-08-11 11:45:30.410,2022-08-11 11:56:46.510,BANCO DE ALIMENTOS - CEASA-DF,ZONA INDUSTRIAL GUARA,BRASILIA,DF,"Emi Bloco C, Brasilia, Brasilia, DF",ESPLANADA DOS MINISTERIOS - ZONA CIVICOADMINISTRATIVA - 70050-000 - BRASILIA - DF - BRASILIA,-15.789385,-47.947373,-15.799337,-47.871392,-15.799286,-47.871552,,
TAXIGOV_DF,626430.0,Ministério da Economia,CANCELADA,1 - REUNIAO EXTERNA,,,2022-08-11 11:39:23.363,2022-08-11 11:39:37.253,,2022-08-11 11:39:37.253,2022-08-11 11:40:36.180,MINISTERIO DA ECONOMIA - BLOCO P,PA 2,BRASILIA,DF,"Restaurante MF/MTE (Anexo), Esplanada dos Ministerios - Anexo Bloco F, Brasilia, Brasilia, DF",,-15.796395,-47.869913,-15.801780,-47.869470,,,,
TAXIGOV_DF,626431.0,Ministério Cidadania,CONCLUÍDA,1 - REUNIAO EXTERNA,11.94,42.37,2022-08-11 11:39:31.317,2022-08-11 11:39:41.073,2022-08-11 11:45:18.170,2022-08-11 11:45:49.750,2022-08-11 12:03:31.313,"SMAS TR. 3, LT. 1",BRASILIA,BRASILIA,DF,"Ministerio da Economia - Bloco F, Zona Civico-Administrativa, Brasilia, DF",ESPLANADA DOS MINISTERIOS - ZONA CIVICOADMINISTRATIVA - 70050-000 - BRASILIA - DF - BRASILIA,-15.836098,-47.951126,-15.799624,-47.869075,-15.800025,-47.869037,,
TAXIGOV_DF,626439.0,Ministério Cidadania,CONCLUÍDA,1 - REUNIAO EXTERNA,16.11,57.18,2022-08-11 11:41:21.100,2022-08-11 11:41:41.007,2022-08-11 11:45:38.387,2022-08-11 11:46:44.523,2022-08-11 12:06:23.227,"ED.THE UNION, SMPW TRECHO 3 Q 2 Q 1 CONJUNTO 2",ASA SUL,BRASILIA,DF,"Ministerio da Cidadania - MC, Eixo Monumental, Brasilia, Distrito Federal",ESPLANADA DOS MINISTERIOS - ZONA CIVICOADMINISTRATIVA - 70050-000 - BRASILIA - DF - BRASILIA,-15.836362,-47.951692,-15.798614,-47.872419,-15.798695,-47.873133,,
TAXIGOV_DF,626447.0,Ministério da Saúde,CONCLUÍDA,1 - REUNIAO EXTERNA,4.67,16.56,2022-08-11 11:44:54.763,2022-08-11 11:45:12.583,2022-08-11 11:49:39.763,2022-08-11 11:49:42.380,2022-08-11 12:00:12.513,VIA W 5 NORTE,ASA NORTE,BRASILIA,DF,"Camara dos Deputados Anexo IV, Anexo IV, Brasilia, DF",PC DOS TRES PODERES - ZONA CIVICOADMINISTRATIVA - 70100-000 - BRASILIA - DF - BRASILIA,-15.783635,-47.890337,-15.802637,-47.865112,-15.801994,-47.864588,2022-08-15 16:03:15.140,
TAXIGOV_DF,626452.0,Ministério da Justiça,CONCLUÍDA,1 - REUNIAO EXTERNA,1.88,7.1,2022-08-11 11:45:57.133,2022-08-11 11:46:10.130,2022-08-11 11:51:35.260,2022-08-11 11:52:54.637,2022-08-11 12:00:17.177,PALACIO DA JUSTICA - MINISTERIO DA JUSTICA E SEGURANCA PUBLICA,ASA SUL,BRASILIA,DF,"Palacio Itamaraty, Brasilia, Distrito Federal",ESPLANADA DOS MINISTERIOS - ZONA CIVICOADMINISTRATIVA - 70050-000 - BRASILIA - DF - BRASILIA,-15.797259,-47.867237,-15.800679,-47.867296,-15.800508,-47.868288,,
TAXIGOV_DF,626453.0,MCTIC,CONCLUÍDA,1 - REUNIAO EXTERNA,15.36,54.54,2022-08-11 11:46:08.603,2022-08-11 11:46:17.887,2022-08-11 11:47:26.183,2022-08-11 11:48:28.910,2022-08-11 12:09:53.660,"MINISTERIO DA CIENCIA, TECNOLOGIA E INOVACOES - MCTI",PA 2,BRASILIA,DF,"Spo. 15, Brasilia, Brasilia, DF",SPO - BRASILIA - DF - BRASILIA,-15.799394,-47.869908,-15.816741,-47.943288,-15.816501,-47.94289,,
TAXIGOV_DF,626456.0,MINISTERIO DO DESENVOLVIMENTO REGIONAL,CONCLUÍDA,1 - REUNIAO EXTERNA,15.64,55.52,2022-08-11 11:47:52.090,2022-08-11 11:48:04.027,2022-08-11 11:56:03.067,2022-08-11 12:11:51.060,2022-08-11 12:33:34.497,SPO. 15,BRASILIA,BRASILIA,DF,"Ministerio do Desenvolvimento Regional - Ed. Celso Furtado, Asa Norte, Brasilia, Distrito Federal",SCRN 706/707 BLOCO E - ASA NORTE - 70740-650 - BRASILIA - DF - BRASILIA,-15.829360,-47.943991,-15.770220,-47.893141,-15.770229,-47.892926,,
TAXIGOV_DF,626457.0,Presidência da República,CONCLUÍDA,1 - REUNIAO EXTERNA,3.94,13.99,2022-08-11 11:48:10.410,2022-08-11 11:49:30.067,2022-08-11 11:59:06.103,2022-08-11 12:01:16.060,2022-08-11 12:06:19.137,VIA PALACIO PRESIDENCIAL,ZONA CIVICOADMINISTRATIVA,BRASILIA,DF,"Palacio do Planalto - Anexo I, Praca dos Tres Poderes, Brasilia, Brasilia, DF",PC DOS TRES PODERES - ZONA CIVICOADMINISTRATIVA - 70100-000 - BRASILIA - DF - BRASILIA,-15.792512,-47.822834,-15.799513,-47.859511,-15.799809,-47.859215,,
TAXIGOV_DF,626459.0,Ministério Cidadania,CONCLUÍDA,1 - REUNIAO EXTERNA,10.23,36.32,2022-08-11 11:50:32.947,2022-08-11 11:50:46.663,2022-08-11 11:50:48.670,2022-08-11 11:50:48.937,2022-08-11 12:03:51.347,MINISTERIO DA CIDADANIA - GM/MC,PA 2,BRASILIA,DF,"Saan Quadra 4, 916, Brasilia, Brasilia, DF",SAAN QUADRA 4 - ZONA INDUSTRIAL - 70632-400 - BRASILIA - DF - BRASILIA,-15.798405,-47.873197,-15.758789,-47.931868,-15.758906,-47.931720,,
TAXIGOV_DF,626460.0,Ministério Cidadania,CONCLUÍDA,1 - REUNIAO EXTERNA,2.29,8.13,2022-08-11 11:51:42.260,2022-08-11 11:52:11.700,2022-08-11 11:52:15.067,2022-08-11 11:57:21.590,2022-08-11 11:57:30.140,"EMI BLOCO A,",BRASILIA,BRASILIA,DF,"DNIT - Departamento Nacional de Infraestrutura de Transportes, SAN Qd. 3 Bl. A, ZONA CIVICOADMINISTRATIVA, BRASILIA, DF",SBN QUADRA 2 - ASA NORTE - 70040-020 - BRASILIA - DF - BRASILIA,-15.798852,-47.873352,-15.790708,-47.875235,-15.789330,-47.875097,,
TAXIGOV_DF,626461.0,Ministério da Economia,CONCLUÍDA,1 - REUNIAO EXTERNA,1.64,7.1,2022-08-11 11:52:05.067,2022-08-11 11:53:47.240,2022-08-11 11:57:20.213,2022-08-11 11:57:20.580,2022-08-11 12:03:24.967,ESPLANADA DOS MINISTERIOS,BRASILIA,BRASILIA,DF,"Ministerio da Economia - Bloco K, Brasilia, DF",ESPLANADA DOS MINISTERIOS - ZONA CIVICOADMINISTRATIVA - 70050-000 - BRASILIA - DF - BRASILIA,-15.801744,-47.869829,-15.794738,-47.873794,-15.794817,-47.873732,,
TAXIGOV_DF,626464.0,Ministério da Mulher,CONCLUÍDA,1 - REUNIAO EXTERNA,1.74,7.1,2022-08-11 11:56:53.867,2022-08-11 11:57:03.680,2022-08-11 12:05:14.683,2022-08-11 12:07:30.167,2022-08-11 12:11:03.603,"MINISTERIO DA JUSTICA - ANEXO I, EIXO MONUMENTAL",ASA SUL,BRASILIA,DF,"Ministerio da Cidadania - MC, Eixo Monumental, Brasilia, Distrito Federal",ESPLANADA DOS MINISTERIOS - ZONA CIVICOADMINISTRATIVA - 70050-000 - BRASILIA - DF - BRASILIA,-15.796628,-47.866545,-15.798614,-47.872419,-15.798723,-47.873233,,
TAXIGOV_DF,626470.0,Ministério Cidadania,CONCLUÍDA,1 - REUNIAO EXTERNA,33.42,118.65,2022-08-11 12:00:49.503,2022-08-11 13:35:09.127,2022-08-11 13:41:08.670,2022-08-11 13:51:49.933,2022-08-11 14:42:17.110,EMI BLOCO C,BRASILIA,BRASILIA,DF,"CASA DA MULHER BRASILEIRA, Brasilia, DF",CNM 1 BLOCO I - CEILANDIA CENTRO CEILANDIA - 72215-509 - BRASILIA - DF - BRASILIA,-15.799545,-47.871752,-15.817819,-48.102220,-15.817923,-48.102060,,
TAXIGOV_DF,626472.0,Ministério da Justiça,CONCLUÍDA,1 - REUNIAO EXTERNA,0.52,7.1,2022-08-11 12:02:29.023,2022-08-11 12:02:38.307,2022-08-11 12:02:51.660,2022-08-11 12:15:12.940,2022-08-11 12:18:46.083,"ANEXO II DO ITAMARATY(BOLO DE NOIVA),",ASA SUL,BRASILIA,DF,"PALACIO DA JUSTIÇA, - PA 1",ESPLANADA DOS MINISTERIOS - ZONA CIVICOADMINISTRATIVA - 70050-000 - BRASILIA - DF - BRASILIA,-15.80173,-47.86795,-15.79735,-47.86613,-15.796738,-47.866018,,
TAXIGOV_DF,626475.0,Ministério Cidadania,CONCLUÍDA,1 - REUNIAO EXTERNA,0.8,7.1,2022-08-11 12:04:50.080,2022-08-11 12:04:56.497,2022-08-11 12:05:10.030,2022-08-11 12:05:18.320,2022-08-11 12:09:08.383,"MINISTERIO DA ECONOMIA BLOCO F,",PA 1,BRASILIA,DF,"ANEXO MINISTERIO DA ECONOMIA BLOCO F, - ESPLANADA",ESPLANADA DOS MINISTERIOS - ZONA CIVICOADMINISTRATIVA - 70050-000 - BRASILIA - DF - BRASILIA,-15.79952,-47.86909,-15.80161,-47.86961,-15.801550,-47.869350,,
TAXIGOV_DF,626476.0,Ministério Cidadania,CONCLUÍDA,1 - REUNIAO EXTERNA,13.14,46.66,2022-08-11 12:06:21.263,2022-08-11 12:06:33.850,2022-08-11 12:10:35.773,2022-08-11 12:10:45.327,2022-08-11 12:26:15.540,MINISTERIO DA CIDADANIA - GM/MC,PA 2,BRASILIA,DF,"Ed.The Union, Smpw Trecho 3 Q 2 Q 1 Conjunto 2, Brasilia, DF",SMAS TRECHO 3 - BRASILIA - DF - BRASILIA,-15.798405,-47.873197,-15.836361,-47.951692,-15.836020,-47.951368,,
TAXIGOV_DF,626478.0,Ministério do Turismo,CONCLUÍDA,1 - REUNIAO EXTERNA,3.82,13.55,2022-08-11 12:07:21.837,2022-08-11 12:07:31.097,2022-08-11 12:08:46.230,2022-08-11 12:12:11.903,2022-08-11 12:20:50.060,N BL U,PA 2,BRASILIA,DF,"Decathlon Venancio, Asa Sul, Brasilia, DF",SHS QUADRA 6 - ASA SUL - 70316-000 - BRASILIA - DF - BRASILIA,-15.796887,-47.868230,-15.794837,-47.892513,-15.794671,-47.892426,,
TAXIGOV_DF,626480.0,Ministério da Saúde,CONCLUÍDA,1 - REUNIAO EXTERNA,15.46,54.87,2022-08-11 12:08:50.767,2022-08-11 12:09:02.610,2022-08-11 12:16:04.057,2022-08-11 12:16:13.713,2022-08-11 12:41:26.883,"LAGO SUL, BRASILIA - DF, 71608-000, BRASIL",LAGO SUL,BRASILIA,DF,"PO 700, Via W 5 Norte, Asa Norte, Brasilia, DF",SCRN 702/703 BLOCO DOM - ASA NORTE - 70720-640 - BRASILIA - DF - BRASILIA,-15.870557,-47.920543,-15.783635,-47.890337,-15.783383,-47.890413,2022-08-15 16:03:15.397,
TAXIGOV_DF,626483.0,Ministério da Economia,CONCLUÍDA,1 - REUNIAO EXTERNA,1.28,7.1,2022-08-11 12:09:48.960,2022-08-11 12:10:23.697,2022-08-11 12:11:03.857,2022-08-11 12:11:16.240,2022-08-11 12:14:13.870,MINISTERIO DA ECONOMIA - BLOCO K,PA 2,BRASILIA,DF,"Anexo do Ministerio do Trabalho e Emprego, Esplanada dos Ministerios, Brasilia, Brasilia, DF",ESPLANADA DOS MINISTERIOS - ZONA CIVICOADMINISTRATIVA - 70050-000 - BRASILIA - DF - BRASILIA,-15.794738,-47.873794,-15.801744,-47.869829,-15.801502,-47.869302,,
TAXIGOV_DF,626485.0,Ministério Cidadania,CONCLUÍDA,1 - REUNIAO EXTERNA,16.58,58.86,2022-08-11 12:11:55.643,2022-08-11 12:12:33.090,2022-08-11 12:16:46.790,2022-08-11 12:16:47.233,2022-08-11 12:34:36.400,"THE UNION, SMAS TR. 3, LT. 1",ASA SUL,BRASILIA,DF,"DNIT - Departamento Nacional de Infraestrutura de Transportes, Asa Norte, Brasilia, Distrito Federal",SBN QUADRA 2 - ASA NORTE - 70040-020 - BRASILIA - DF - BRASILIA,-15.836099,-47.951127,-15.789993,-47.874969,-15.789353,-47.875043,,
TAXIGOV_DF,626486.0,Ministério do Turismo,CONCLUÍDA,1 - REUNIAO EXTERNA,3.74,13.27,2022-08-11 12:13:09.873,2022-08-11 12:13:36.947,2022-08-11 12:17:32.370,2022-08-11 12:19:56.320,2022-08-11 12:31:28.433,N BL U,PA 2,BRASILIA,DF,"Decathlon, Venancio Shopping, Brasilia, Brasilia, DF",SCS QUADRA 8 - ASA SUL - 70308-000 - BRASILIA - DF - BRASILIA,-15.796887,-47.868230,-15.79526,-47.892071,-15.794735,-47.892446,,
TAXIGOV_DF,626487.0,Ministério da Justiça,CONCLUÍDA,1 - REUNIAO EXTERNA,16.59,58.88,2022-08-11 12:13:28.993,2022-08-11 12:13:37.210,2022-08-11 12:16:23.217,2022-08-11 12:16:42.133,2022-08-11 12:40:08.690,"ESPLANADA DOS MINISTERIOS, BL. T",BRASILIA,BRASILIA,DF,"CICCN - Centro Integrado de Comando e Controle Nacional, Brasilia, DF",SPO - BRASILIA - DF - BRASILIA,-15.797112,-47.865906,-15.814486,-47.946575,-15.818405,-47.944357,,
TAXIGOV_DF,626495.0,Ministério da Infraestrutura,CONCLUÍDA,4 - OUTROS,12.53,44.49,2022-08-11 12:19:02.157,2022-08-11 12:19:57.400,2022-08-11 12:37:13.777,2022-08-11 12:37:27.943,2022-08-11 12:51:24.383,ESCOLA SUPERIOR DE DEFESA (ESD),LAGO SUL,BRASILIA,DF,"Ministerio da Infraestrutura - Anexos A e B, Eixo Monumental, Brasilia, DF",ESPLANADA DOS MINISTERIOS - ZONA CIVICOADMINISTRATIVA - 70050-000 - BRASILIA - DF - BRASILIA,-15.867361,-47.821899,-15.795205,-47.866908,-15.795313,-47.867056,,
TAXIGOV_DF,626496.0,Ministério da Justiça,CONCLUÍDA,3 - VISITA TECNICA,3.63,12.9,2022-08-11 12:19:13.637,2022-08-11 12:19:23.320,2022-08-11 12:21:28.697,2022-08-11 12:22:01.450,2022-08-11 12:29:57.460,DEPEN - DEPARTAMENTO PENITENCIARIO NACIONAL,ASA NORTE,BRASILIA,DF,"Ministerio da Justica (MJ), Esplanada dos Ministerios, Bl. T, Brasilia, Brasilia, DF",ESPLANADA DOS MINISTERIOS - ZONA CIVICOADMINISTRATIVA - 70050-000 - BRASILIA - DF - BRASILIA,-15.787595,-47.885945,-15.797112,-47.865906,-15.796741,-47.866102,,
TAXIGOV_DF,626498.0,MINISTERIO DO DESENVOLVIMENTO REGIONAL,CANCELADA,1 - REUNIAO EXTERNA,,,2022-08-11 12:19:59.643,2022-08-11 12:21:01.003,,2022-08-11 12:21:01.003,2022-08-11 12:21:02.150,MINISTERIO DO DESENVOLVIMENTO REGIONAL,PA 2,BRASILIA,DF,"Ministerio do Desenvolvimento Regional, Via W 5 Norte, 174, Asa Norte, Brasilia, DF",,-15.799763,-47.870048,-15.770399,-47.893189,,,,
TAXIGOV_DF,626499.0,MAPA - Ministério da Agricultura - Pecuária e Abastecimento,CONCLUÍDA,1 - REUNIAO EXTERNA,2.53,8.98,2022-08-11 12:20:17.100,2022-08-11 12:20:29.433,2022-08-11 12:22:25.403,2022-08-11 12:24:44.633,2022-08-11 12:30:03.753,"MINISTERIO DA AGRICULTURA, PECUARIA E ABASTECIMENTO",,BRASILIA,DF,"Edificio Siderbras - Secretaria da Aquicultura e Pesca do MAPA - Reitoria do IFB, Asa Sul, Brasilia, Distrito Federal",SAUS QUADRA 2 - ASA SUL - 70070-020 - BRASILIA - DF - BRASILIA,-15.799535,-47.870930,-15.801116,-47.879288,-15.800747,-47.879607,2022-08-17 16:16:02.980,
TAXIGOV_DF,626501.0,MINISTERIO DO DESENVOLVIMENTO REGIONAL,CONCLUÍDA,1 - REUNIAO EXTERNA,5.8,20.59,2022-08-11 12:22:51.797,2022-08-11 12:24:58.100,2022-08-11 12:29:16.770,2022-08-11 12:30:14.947,2022-08-11 12:43:15.093,MINISTÉRIO DO DESENVOLVIMENTO REGIONAL,,BRASÍLIA,DF,MINISTÉRIO DO DESENVOLVIMENTO REGIONAL - ED. CELSO FURTADO - ASA NORTE - BRASÍLIA / DF,SCRN 706/707 BLOCO E - ASA NORTE - 70740-650 - BRASILIA - DF - BRASÍLIA,-15.799763,-47.870048,-15.770219,-47.893141,-15.770188,-47.893013,,
TAXIGOV_DF,626505.0,Ministério do Meio Ambiente,CONCLUÍDA,1 - REUNIAO EXTERNA,1.92,7.1,2022-08-11 12:28:00.630,2022-08-11 12:28:25.153,2022-08-11 12:31:39.470,2022-08-11 12:32:33.133,2022-08-11 12:36:58.463,CAMARA DOS DEPUTADOS ANEXO IV,ANEXO IV,BRASILIA,DF,"Ministerio do Meio Ambiente, Eixo Monumental, Brasilia, DF",ESPLANADA DOS MINISTERIOS - ZONA CIVICOADMINISTRATIVA - 70050-000 - BRASILIA - DF - BRASILIA,-15.802637,-47.865112,-15.798594,-47.872431,-15.799203,-47.872377,,
TAXIGOV_DF,626506.0,MINISTERIO DO DESENVOLVIMENTO REGIONAL,CONCLUÍDA,1 - REUNIAO EXTERNA,5.42,19.24,2022-08-11 12:28:52.263,2022-08-11 12:29:04.070,2022-08-11 12:30:00.797,2022-08-11 12:30:35.790,2022-08-11 12:43:16.487,EMI BLOCO E,BRASILIA,BRASILIA,DF,"Ministerio do Desenvolvimento Regional - Ed. Celso Furtado, Asa Norte, Brasilia, DF",SCRN 706/707 BLOCO E - ASA NORTE - 70740-650 - BRASILIA - DF - BRASILIA,-15.799452,-47.869915,-15.770219,-47.893141,-15.770325,-47.892955,,
TAXIGOV_DF,626513.0,MINISTERIO DO DESENVOLVIMENTO REGIONAL,CONCLUÍDA,1 - REUNIAO EXTERNA,5.75,20.4,2022-08-11 12:31:54.940,2022-08-11 12:33:28.837,2022-08-11 12:37:51.087,2022-08-11 12:37:53.670,2022-08-11 12:49:43.277,MINISTERIO DO DESENVOLVIMENTO REGIONAL,PA 2,BRASILIA,DF,"Ministerio do Desenvolvimento Regional, Via W 5 Norte, 174, Asa Norte, Brasilia, DF",SCRN 706/707 BLOCO DOM - ASA NORTE - 70740-640 - BRASILIA - DF - BRASILIA,-15.799763,-47.870048,-15.770399,-47.893189,-15.770091,-47.891444,,
TAXIGOV_DF,626520.0,Ministério Cidadania,CONCLUÍDA,1 - REUNIAO EXTERNA,11.33,40.23,2022-08-11 12:42:44.510,2022-08-11 12:43:15.100,2022-08-11 12:47:12.223,2022-08-11 12:48:13.053,2022-08-11 13:03:43.297,"SMAS TR. 3, LT. 1",BRASILIA,BRASILIA,DF,"Ministerio da Cidadania - Bloco A, Brasilia, DF",ESPLANADA DOS MINISTERIOS - ZONA CIVICOADMINISTRATIVA - 70050-000 - BRASILIA - DF - BRASILIA,-15.836098,-47.951126,-15.798405,-47.873197,-15.798515,-47.873103,,
TAXIGOV_DF,626521.0,Ministério do Meio Ambiente,CONCLUÍDA,1 - REUNIAO EXTERNA,3.78,13.41,2022-08-11 12:43:46.223,2022-08-11 12:43:54.043,2022-08-11 12:46:11.640,2022-08-11 12:46:16.680,2022-08-11 12:53:16.690,EIXO MONUMENTAL,PA 2,BRASILIA,DF,"Venancio Shopping, Setor Comercial Sul, Quadra 8, Asa Sul, Brasilia, DF",SHS QUADRA 6 - ASA SUL - 70316-000 - BRASILIA - DF - BRASILIA,-15.798594,-47.872431,-15.796287,-47.892931,-15.794599,-47.892386,,
TAXIGOV_DF,626523.0,Ministério da Economia,CONCLUÍDA,1 - REUNIAO EXTERNA,2.96,10.51,2022-08-11 12:44:14.937,2022-08-11 12:46:01.053,2022-08-11 12:55:31.077,2022-08-11 12:55:31.530,2022-08-11 13:03:47.300,CONSELHO ADMINISTRATIVO DE RECURSOS FISCAIS,ASA SUL,BRASILIA,DF,"Centro Empresarial CNC, SAUN Qd. 5, Lt. C, ASA NORTE, BRASILIA, DF",SQN 402 BLOCO DOM - ASA NORTE - 70834-040 - BRASILIA - DF - BRASILIA,-15.797693,-47.886028,-15.786488,-47.875310,-15.785764,-47.875320,,
TAXIGOV_DF,626531.0,Ministério das Relaçoes Exteriores,CONCLUÍDA,1 - REUNIAO EXTERNA,8.43,29.93,2022-08-11 13:00:31.510,2022-08-11 13:00:42.033,2022-08-11 13:04:18.750,2022-08-11 13:05:07.857,2022-08-11 13:19:18.600,BANCO DO BRASIL - ITAMARATY - AGENCIA 1503,,BRASILIA,DF,"BL E, Asa Sul, Brasilia, Distrito Federal",SQS 213 BLOCO E - ASA SUL - 70292-050 - BRASILIA - DF - BRASILIA,-15.801015,-47.867922,-15.829388,-47.914351,-15.829417,-47.914621,2022-08-17 15:16:15.743,
TAXIGOV_DF,626540.0,Ministério da Justiça,CONCLUÍDA,1 - REUNIAO EXTERNA,4.04,14.33,2022-08-11 13:08:12.867,2022-08-11 13:08:20.523,2022-08-11 13:11:35.670,2022-08-11 13:11:40.570,2022-08-11 13:20:34.467,MULTIBRASIL CORPORATE - POLICIA FEDERAL NOVA SEDE,ASA NORTE,BRASILIA,DF,"Ministerio da Justica e Cidadania - Anexo II, Brasilia, DF",ESPLANADA DOS MINISTERIOS - ZONA CIVICOADMINISTRATIVA - 70050-000 - BRASILIA - DF - BRASILIA,-15.787807,-47.886840,-15.796573,-47.866004,-15.796725,-47.866143,,
TAXIGOV_DF,626542.0,Presidência da República,CONCLUÍDA,1 - REUNIAO EXTERNA,1.63,7.1,2022-08-11 13:08:50.513,2022-08-11 13:08:59.537,2022-08-11 13:11:33.620,2022-08-11 13:11:45.717,2022-08-11 13:17:25.913,"ESTACIONAMENTO DO ANEXO II CAMARA DOS DEPUTADOS, VIA S2",ASA SUL,BRASILIA,DF,"Arco do Anexo do Palacio do Planalto, Via N1, Brasilia, Distrito Federal",PC DOS TRES PODERES - ZONA CIVICOADMINISTRATIVA - 70100-000 - BRASILIA - DF - BRASILIA,-15.801564,-47.865500,-15.799750,-47.859334,-15.799763,-47.859356,,
TAXIGOV_DF,626545.0,CENSIPAM,CONCLUÍDA,2 - ENTREGA DE DOCUMENTOS,7.09,25.17,2022-08-11 13:09:35.763,2022-08-11 13:09:49.587,2022-08-11 13:19:08.027,2022-08-11 13:19:15.213,2022-08-11 13:34:07.160,BB AG. 504,BRASILIA,BRASILIA,DF,"CENSIPAM Centro Gestor do Sistema de Protecao da Amazonia, SPO 5 Qd. 3 Bl. K, Brasilia, Brasilia, DF",SPO - BRASILIA - DF - BRASILIA,-15.805517,-47.897543,-15.814703,-47.941096,-15.815132,-47.941063,,
TAXIGOV_DF,626549.0,Ministério da Saúde,CONCLUÍDA,1 - REUNIAO EXTERNA,4.22,14.97,2022-08-11 13:12:21.620,2022-08-11 13:12:30.820,2022-08-11 13:16:04.417,2022-08-11 13:16:14.047,2022-08-11 13:24:07.710,"ESPLANADA DOS MINISTERIOS, BL. G",BRASILIA,BRASILIA,DF,"PO 700, Via W 5 Norte, Asa Norte, Brasilia, DF",SCN QUADRA 6 - ASA NORTE - 70716-000 - BRASILIA - DF - BRASILIA,-15.800548,-47.868548,-15.783635,-47.890337,-15.784096,-47.890438,2022-08-15 16:03:15.660,
TAXIGOV_DF,626561.0,MINISTERIO DO DESENVOLVIMENTO REGIONAL,CONCLUÍDA,1 - REUNIAO EXTERNA,5.42,19.25,2022-08-11 13:23:01.383,2022-08-11 13:23:15.137,2022-08-11 13:24:11.903,2022-08-11 13:25:24.400,2022-08-11 13:37:06.910,"MINISTERIO DA INTEGRACAO NACIONAL, ESPLANADA DOS MINISTERIOS, BL. E",ZONA CIVICOADMINISTRATIVA,BRASILIA,DF,"Ministerio do Desenvolvimento Regional - Ed. Celso Furtado, Asa Norte, Brasilia, Distrito Federal",SCRN 706/707 BLOCO E - ASA NORTE - 70740-650 - BRASILIA - DF - BRASILIA,-15.800093,-47.870139,-15.770220,-47.893141,-15.770315,-47.892984,,
TAXIGOV_DF,626562.0,Ministério da Defesa,CONCLUÍDA,1 - REUNIAO EXTERNA,4.53,16.07,2022-08-11 13:23:08.997,2022-08-11 13:23:18.960,2022-08-11 13:29:11.697,2022-08-11 13:29:28.207,2022-08-11 13:36:53.540,MINISTERIO DA DEFESA ANEXO 1,ASA NORTE,BRASILIA,DF,"Memorial Darcy Ribeiro (Beijodromo), Campus Darcy Ribeiro, s/n, Asa Norte, Brasilia, Distrito Federal",COLINA BLOCO B - CAMPUS UNIVERSITARIO DARCY RIBEIRO - 70904-102 - BRASILIA - DF - BRASILIA,-15.794415,-47.870281,-15.763953,-47.865884,-15.763519,-47.865861,,
TAXIGOV_DF,626567.0,MAPA - Ministério da Agricultura - Pecuária e Abastecimento,CONCLUÍDA,1 - REUNIAO EXTERNA,1.92,7.1,2022-08-11 13:27:14.907,2022-08-11 13:27:22.870,2022-08-11 13:30:51.280,2022-08-11 13:30:56.620,2022-08-11 13:35:19.863,"EDIFICIO SIDERBRAS - SECRETARIA DA AQUICULTURA E PESCA DO MAPA - REITORIA DO IFB, 535",ASA SUL,BRASILIA,DF,"Ministerio da Agricultura, Pecuaria e Abastecimento, Brasilia, DF",ESPLANADA DOS MINISTERIOS - ZONA CIVICOADMINISTRATIVA - 70050-000 - BRASILIA - DF - BRASILIA,-15.801115,-47.879288,-15.799534,-47.870929,-15.799511,-47.870703,,
TAXIGOV_DF,626568.0,Ministério da Defesa,CONCLUÍDA,1 - REUNIAO EXTERNA,7.02,24.94,2022-08-11 13:27:36.397,2022-08-11 13:27:44.307,2022-08-11 13:31:28.560,2022-08-11 13:32:15.230,2022-08-11 13:45:40.497,EM,BRASILIA,BRASILIA,DF,"Teatro Pedro Calmon, Brasilia, DF",SMU - BRASILIA - DF - BRASILIA,-15.795640,-47.868460,-15.774807,-47.919685,-15.775202,-47.919312,,
TAXIGOV_DF,626571.0,Presidência da República,CONCLUÍDA,2 - ENTREGA DE DOCUMENTOS,8.16,28.97,2022-08-11 13:30:13.727,2022-08-11 13:30:39.137,2022-08-11 13:38:02.760,2022-08-11 13:38:28.477,2022-08-11 13:54:02.953,BRASILIA,BRASILIA,BRASILIA,DF,"Base de Administracao e Apoio do Comando Militar do Planalto, Brasilia, DF",AV DO EXERCITO - 70630-000 - BRASILIA - DF - BRASILIA,-15.799438,-47.859390,-15.778501,-47.919187,-15.778828,-47.919851,,
TAXIGOV_DF,626573.0,Ministério do Meio Ambiente,CONCLUÍDA,1 - REUNIAO EXTERNA,2.87,10.2,2022-08-11 13:31:33.867,2022-08-11 13:31:42.863,2022-08-11 13:33:45.777,2022-08-11 13:34:02.557,2022-08-11 13:40:07.197,"MINISTERIO DO MEIO AMBIENTE, EIXO MONUMENTAL",,BRASILIA,DF,"Centro Empresarial CNC, Asa Norte, Brasilia, Distrito Federal",SQN 402 BLOCO DOM - ASA NORTE - 70834-040 - BRASILIA - DF - BRASILIA,-15.798594,-47.872432,-15.785907,-47.875464,-15.785697,-47.875388,,
TAXIGOV_DF,626578.0,Ministério Cidadania,CONCLUÍDA,1 - REUNIAO EXTERNA,10.65,37.81,2022-08-11 13:35:14.203,2022-08-11 13:35:25.210,2022-08-11 13:40:40.590,2022-08-11 13:42:48.433,2022-08-11 14:00:52.063,SAAN QUADRA 4,ZONA INDUSTRIAL,BRASILIA,DF,"Servico Federal de Processamento de Dados   Regional Brasilia, Asa Norte, Brasilia, DF",SQN 402 BLOCO F - ASA NORTE - 70834-060 - BRASILIA - DF - BRASILIA,-15.760138,-47.931871,-15.787466,-47.872525,-15.787201,-47.871780,,
TAXIGOV_DF,626583.0,Ministério das Relaçoes Exteriores,CONCLUÍDA,3 - VISITA TECNICA,6.67,23.68,2022-08-11 13:36:51.870,2022-08-11 13:37:07.817,2022-08-11 13:41:05.030,2022-08-11 13:41:07.607,2022-08-11 14:22:12.903,BANCO DO BRASIL - ITAMARATY - AGENCIA 1503,PA 2,BRASILIA,DF,"SQN 108 Bl. D, Asa Norte, Brasilia, DF",SQN 108 BLOCO E - ASA NORTE - 70744-050 - BRASILIA - DF - BRASILIA,-15.801014,-47.867922,-15.762864,-47.886888,-15.762553,-47.886353,2022-08-17 15:16:16.013,
TAXIGOV_DF,626591.0,Ministério da Educação,CONCLUÍDA,2 - ENTREGA DE DOCUMENTOS,1.59,7.1,2022-08-11 13:40:15.777,2022-08-11 13:41:18.847,2022-08-11 13:44:27.250,2022-08-11 13:48:01.123,2022-08-11 13:51:43.010,MINISTÉRIO DA EDUCAÇÃO,,BRASÍLIA,DF,EMBAIXADA DOS ESTADOS UNIDOS DA AMÉRICA - ASA SUL - BRASÍLIA / DF,SES 801 CJ A - ASA SUL - 70200-012 - BRASILIA - DF - BRASÍLIA,-15.795007,-47.873047,-15.804106,-47.873222,-15.803646,-47.874109,,
TAXIGOV_DF,626603.0,Ministério da Educação,CONCLUÍDA,2 - ENTREGA DE DOCUMENTOS,1.85,7.1,2022-08-11 13:46:32.867,2022-08-11 14:15:15.083,2022-08-11 14:15:32.733,2022-08-11 14:22:46.170,2022-08-11 14:30:02.800,EMBAIXADA DOS ESTADOS UNIDOS DA AMÉRICA,ASA SUL,BRASÍLIA,DF,MINISTÉRIO DA EDUCAÇÃO - BRASÍLIA / DF,ESPLANADA DOS MINISTERIOS - ZONA CIVICOADMINISTRATIVA - 70050-000 - BRASILIA - DF - BRASÍLIA,-15.804106,-47.873222,-15.795007,-47.873047,-15.795079,-47.872895,,
TAXIGOV_DF,626609.0,MAPA - Ministério da Agricultura - Pecuária e Abastecimento,CONCLUÍDA,1 - REUNIAO EXTERNA,2.35,8.34,2022-08-11 13:50:42.730,2022-08-11 13:50:51.647,2022-08-11 13:55:06.590,2022-08-11 13:55:09.167,2022-08-11 14:03:57.260,INSTITUTO NACIONAL DE COLONIZACAO E REFORMA AGRARIA (INCRA),BRASILIA,BRASILIA,DF,"Ministerio da Agricultura, Pecuaria e Abastecimento, Brasilia, DF",ESPLANADA DOS MINISTERIOS - ZONA CIVICOADMINISTRATIVA - 70050-000 - BRASILIA - DF - BRASILIA,-15.790962,-47.879399,-15.799534,-47.870929,-15.800015,-47.870828,2022-08-17 16:16:03.233,
TAXIGOV_DF,626612.0,MAPA - Ministério da Agricultura - Pecuária e Abastecimento,CONCLUÍDA,1 - REUNIAO EXTERNA,1.46,7.1,2022-08-11 13:52:09.627,2022-08-11 13:53:58.380,2022-08-11 13:55:55.767,2022-08-11 13:56:35.567,2022-08-11 14:00:44.573,"EDIFICIO SIDERBRAS - SECRETARIA DA AQUICULTURA E PESCA DO MAPA - REITORIA DO IFB, 535",ASA SUL,BRASILIA,DF,"Ministerio da Agricultura, Pecuaria e Abastecimento, Brasilia, Distrito Federal",ESPLANADA DOS MINISTERIOS - ZONA CIVICOADMINISTRATIVA - 70050-000 - BRASILIA - DF - BRASILIA,-15.801116,-47.879288,-15.799535,-47.870930,-15.799356,-47.870608,2022-08-17 16:28:23.050,
TAXIGOV_DF,626613.0,MAPA - Ministério da Agricultura - Pecuária e Abastecimento,CONCLUÍDA,1 - REUNIAO EXTERNA,2.78,9.85,2022-08-11 13:52:25.280,2022-08-11 13:52:36.440,2022-08-11 13:58:08.403,2022-08-11 13:58:54.980,2022-08-11 14:05:21.283,"MINISTERIO DA AGRICULTURA, PECUARIA E ABASTECIMENTO",,BRASILIA,DF,"Edificio Siderbras - Secretaria da Aquicultura e Pesca do MAPA - Reitoria do IFB, Asa Sul, Brasilia, DF",SAUS QUADRA 2 - ASA SUL - 70070-020 - BRASILIA - DF - BRASILIA,-15.799534,-47.870929,-15.801115,-47.879288,-15.800936,-47.879088,,
TAXIGOV_DF,626618.0,Ministério Cidadania,CANCELADA,1 - REUNIAO EXTERNA,,,2022-08-11 13:54:11.030,2022-08-11 13:54:23.460,2022-08-11 13:56:58.713,2022-08-11 13:54:23.460,2022-08-11 13:59:00.480,"ESPLANADA DOS MINISTERIOS, BL. F",BRASILIA,BRASILIA,DF,"The Union, SMAS Tr. 3, Lt. 1, Brasilia, Brasilia, DF",,-15.800120,-47.869277,-15.836098,-47.951126,,,,
TAXIGOV_DF,626620.0,Presidência da República,CONCLUÍDA,2 - ENTREGA DE DOCUMENTOS,1.86,7.1,2022-08-11 13:54:52.970,2022-08-11 13:54:58.827,2022-08-11 13:55:09.227,2022-08-11 13:55:36.990,2022-08-11 14:08:34.107,"QG DO EXERCITO,",PA 32,BRASILIA,DF,"SMU HMAB, - SMU",QRO CJ 7 - SETOR MILITAR URBANO - 70630-221 - BRASILIA - DF - BRASILIA,-15.77233,-47.91702,-15.77242,-47.93008,-15.773058,-47.929796,,
TAXIGOV_DF,626625.0,Ministério da Educação,CONCLUÍDA,1 - REUNIAO EXTERNA,0.95,7.1,2022-08-11 13:56:56.120,2022-08-11 13:57:05.260,2022-08-11 13:59:11.213,2022-08-11 13:59:32.300,2022-08-11 14:05:03.370,ANEXO MINISTERIO DA EDUCACAO,PA 2,BRASILIA,DF,"Ministerio da Defesa, Eixo Monumental, Brasilia, DF",ESPLANADA DOS MINISTERIOS - ZONA CIVICOADMINISTRATIVA - 70050-000 - BRASILIA - DF - BRASILIA,-15.793545,-47.872712,-15.796665,-47.868959,-15.796583,-47.868758,,
TAXIGOV_DF,626627.0,Ministério Cidadania,CONCLUÍDA,1 - REUNIAO EXTERNA,12.06,42.83,2022-08-11 13:59:04.853,2022-08-11 14:24:11.293,2022-08-11 14:28:47.407,2022-08-11 14:41:19.027,2022-08-11 15:01:25.227,ED.THE UNION,,BRASÍLIA,DF,MINISTÉRIO DA CIDADANIA - GM/MC - BRASÍLIA / DF,ESPLANADA DOS MINISTERIOS - ZONA CIVICOADMINISTRATIVA - 70050-000 - BRASILIA - DF - BRASÍLIA,-15.836361,-47.951692,-15.798405,-47.873197,-15.798459,-47.873096,,
TAXIGOV_DF,626628.0,Ministério da Economia,CONCLUÍDA,1 - REUNIAO EXTERNA,3.4,12.07,2022-08-11 13:59:05.107,2022-08-11 14:04:44.037,2022-08-11 14:00:30.243,2022-08-11 14:07:07.877,2022-08-11 14:14:13.437,ESPLANADA DOS MINISTERIOS - BLOCO F,BRASILIA,BRASILIA,DF,"Depen - Departamento Penitenciario Nacional, Asa Norte, Brasilia, DF",SHN QUADRA 2 BLOCO O - ASA NORTE - 70702-150 - BRASILIA - DF - BRASILIA,-15.800072,-47.869654,-15.787595,-47.885945,-15.788461,-47.886759,,
TAXIGOV_DF,626629.0,Ministério Cidadania,CONCLUÍDA,1 - REUNIAO EXTERNA,13.54,48.08,2022-08-11 13:59:29.607,2022-08-11 13:59:41.157,2022-08-11 14:06:03.200,2022-08-11 14:07:39.637,2022-08-11 14:26:56.397,"ED.THE UNION, SMPW TRECHO 3 Q 2 Q 1 CONJUNTO 2",ASA SUL,BRASILIA,DF,"Ministerio da Cidadania - MC, Eixo Monumental, Brasilia, Distrito Federal",SBN QUADRA 2 - ASA NORTE - 70040-020 - BRASILIA - DF - BRASILIA,-15.836362,-47.951692,-15.798614,-47.872419,-15.789354,-47.874986,,
TAXIGOV_DF,626630.0,Ministério Cidadania,CONCLUÍDA,1 - REUNIAO EXTERNA,15.46,54.87,2022-08-11 13:59:34.000,2022-08-11 14:00:16.700,2022-08-11 14:01:56.530,2022-08-11 14:02:29.230,2022-08-11 14:17:09.607,EMI BLOCO A,BRASILIA,BRASILIA,DF,"Ed.The Union, Smpw Trecho 3 Q 2 Q 1 Conjunto 2, Brasilia, DF",SMAS TRECHO 3 - BRASILIA - DF - BRASILIA,-15.798729,-47.873047,-15.836361,-47.951692,-15.836031,-47.951291,,
TAXIGOV_DF,626631.0,Ministério Cidadania,CONCLUÍDA,1 - REUNIAO EXTERNA,15.46,54.88,2022-08-11 13:59:47.637,2022-08-11 14:00:42.340,2022-08-11 14:02:47.760,2022-08-11 14:03:02.407,2022-08-11 14:20:31.223,EMI BLOCO A,BRASILIA,BRASILIA,DF,"Ed.The Union, Smpw Trecho 3 Q 2 Q 1 Conjunto 2, Brasilia, DF",SMAS TRECHO 3 - BRASILIA - DF - BRASILIA,-15.798670,-47.873298,-15.836361,-47.951692,-15.836052,-47.951290,,
TAXIGOV_DF,626641.0,Ministério Cidadania,CONCLUÍDA,2 - ENTREGA DE DOCUMENTOS,12.39,43.98,2022-08-11 14:04:12.187,2022-08-11 14:04:59.967,2022-08-11 14:11:59.480,2022-08-11 14:13:11.497,2022-08-11 14:30:29.790,ED.THE UNION,ASA SUL,BRASILIA,DF,"Esplanada Dos Ministerios., Brasilia, DF",ESPLANADA DOS MINISTERIOS - ZONA CIVICOADMINISTRATIVA - 70050-000 - BRASILIA - DF - BRASILIA,-15.836361,-47.951692,-15.798830,-47.873321,-15.7988,-47.873195,,
TAXIGOV_DF,626642.0,ABIN,CONCLUÍDA,1 - REUNIAO EXTERNA,5.72,20.31,2022-08-11 14:04:32.747,2022-08-11 14:09:32.003,2022-08-11 14:18:37.497,2022-08-11 14:18:51.623,2022-08-11 14:30:11.457,SPO. 15,BRASILIA,BRASILIA,DF,"Arquivo Nacional, Brasilia, DF",SQSW 300 BLOCO A - SETOR SUDOESTE - 70673-022 - BRASILIA - DF - BRASILIA,-15.821029,-47.942304,-15.791558,-47.913313,-15.791391,-47.912925,,
TAXIGOV_DF,626644.0,MAPA - Ministério da Agricultura - Pecuária e Abastecimento,CONCLUÍDA,1 - REUNIAO EXTERNA,2.35,8.35,2022-08-11 14:04:36.890,2022-08-11 14:05:30.963,2022-08-11 14:14:57.967,2022-08-11 14:15:14.667,2022-08-11 14:21:06.890,BANCA PALACIO DO DESENVOLVIMENTO,ASA NORTE,BRASILIA,DF,"Bloco D - Esplanada dos Ministerios, Brasilia, Distrito Federal",ESPLANADA DOS MINISTERIOS - ZONA CIVICOADMINISTRATIVA - 70050-000 - BRASILIA - DF - BRASILIA,-15.791106,-47.879617,-15.799438,-47.870871,-15.799232,-47.870556,,
TAXIGOV_DF,626649.0,Ministério da Saúde,CONCLUÍDA,1 - REUNIAO EXTERNA,13.82,49.07,2022-08-11 14:05:58.743,2022-08-11 14:06:45.963,2022-08-11 14:14:31.780,2022-08-11 14:14:34.527,2022-08-11 14:31:39.807,"MINISTERIO DA SAUDE - ANEXO B, ESPLANADA DOS MINISTERIOS",ZONA CIVICOADMINISTRATIVA,BRASILIA,DF,"Centro de Convencoes Israel Pinheiro, Brasilia, Distrito Federal",AREA ESPECIAL SEDB INSTITUTO ISRAEL PINHEIRO - SETOR DE HABITACOES INDIVIDUAIS SUL - 71676-010 - BRASILIA - DF - BRASILIA,-15.802002,-47.869175,-15.795457,-47.799618,-15.797179,-47.799913,2022-08-15 16:03:15.910,
TAXIGOV_DF,626650.0,Ministério Cidadania,CONCLUÍDA,1 - REUNIAO EXTERNA,13.52,48.0,2022-08-11 14:06:13.327,2022-08-11 14:08:16.847,2022-08-11 14:08:40.857,2022-08-11 14:08:52.697,2022-08-11 14:22:01.933,ESPLANADA DOS MINISTERIOS,ASA SUL,BRASILIA,DF,"The Union, SMAS Tr. 3, Lt. 1, Brasilia, Brasilia, DF",SMAS TRECHO 3 - BRASILIA - DF - BRASILIA,-15.797094,-47.871139,-15.836098,-47.951126,-15.836143,-47.950761,,
TAXIGOV_DF,626655.0,Ministério da Saúde,CONCLUÍDA,1 - REUNIAO EXTERNA,14.12,50.11,2022-08-11 14:07:06.013,2022-08-11 14:07:28.467,2022-08-11 14:09:44.687,2022-08-11 14:12:20.590,2022-08-11 14:29:28.527,"MINISTERIO DA SAUDE - ANEXO B, ESPLANADA DOS MINISTERIOS",ZONA CIVICOADMINISTRATIVA,BRASILIA,DF,"Centro de Convencoes Israel Pinheiro, Brasilia, Distrito Federal",AREA ESPECIAL SEDB INSTITUTO ISRAEL PINHEIRO - SETOR DE HABITACOES INDIVIDUAIS SUL - 71676-010 - BRASILIA - DF - BRASILIA,-15.802002,-47.869175,-15.795457,-47.799618,-15.796766,-47.799287,2022-08-15 16:03:16.160,
TAXIGOV_DF,626657.0,MAPA - Ministério da Agricultura - Pecuária e Abastecimento,CONCLUÍDA,1 - REUNIAO EXTERNA,2.85,10.11,2022-08-11 14:08:25.910,2022-08-11 14:08:34.897,2022-08-11 14:09:36.653,2022-08-11 14:12:15.137,2022-08-11 14:17:22.860,"MINISTERIO DA ECONOMIA - BLOCO C, ESPLANADA DOS MINISTERIOS",ZONA CIVICO-ADMINISTRATIVA,BRASILIA,DF,"Instituto Nacional de Colonizacao e Reforma Agraria - INCRA/Sede, Asa Norte, Brasilia, Distrito Federal",SBN QUADRA 1 - ASA NORTE - 70040-010 - BRASILIA - DF - BRASILIA,-15.799062,-47.871667,-15.790886,-47.879561,-15.791132,-47.879675,2022-08-17 16:15:10.313,
TAXIGOV_DF,626659.0,Presidência da República,CONCLUÍDA,2 - ENTREGA DE DOCUMENTOS,12.98,46.09,2022-08-11 14:09:28.450,2022-08-11 14:09:33.797,2022-08-11 14:09:43.700,2022-08-11 14:19:57.760,2022-08-11 15:07:23.913,"SMU HMAB,",SMU,BRASILIA,DF,"PAVILHAO DAS METAS, - PA 1",VIA N UM LESTE - BRASILIA - DF - BRASILIA,-15.77242,-47.93008,-15.810645,-47.871879,-15.802018,-47.853877,,
TAXIGOV_DF,626661.0,MINISTERIO DO DESENVOLVIMENTO REGIONAL,CONCLUÍDA,1 - REUNIAO EXTERNA,10.63,37.74,2022-08-11 14:09:58.017,2022-08-11 14:10:36.067,2022-08-11 14:16:29.653,2022-08-11 14:16:50.827,2022-08-11 14:31:43.920,"VIA W 5 NORTE, 174",ASA NORTE,BRASILIA,DF,"CENAD, Brasilia, DF",SPO - BRASILIA - DF - BRASILIA,-15.770399,-47.893189,-15.814576,-47.941157,-15.815126,-47.941050,,
